stop_id,stop_name,mode,longitude,latitude,SA2_CODE21,SA2_NAME21
1100,Broadway/Glen Huntly Rd,Bus,144.98222,-37.88212,206051129,Elwood
1109,Inkerman St/Barkly St,Bus,144.98194,-37.86373,206051513,St Kilda - Central
1414,Bay St/New St,Bus,144.99328,-37.9041,208011169,Brighton (Vic.)
14948,Moorabbin Station/Nepean Hwy,Bus,145.0362,-37.93461,208031191,Moorabbin - Heatherton
18766,Sunshine Station/Dickson St,Bus,144.83322,-37.78743,213011336,Sunshine
19488,Doncaster Shopping Centre/Williamsons Rd,Bus,145.12499,-37.78402,207021157,Doncaster
19648,Box Hill Bus Station/Station St,Bus,145.12214,-37.81983,207031163,Box Hill
20394,Head St/New St,Bus,144.99562,-37.89178,208011169,Brighton (Vic.)
20400,North Brighton Station/Bay St,Bus,145.00317,-37.90554,208011169,Brighton (Vic.)
20668,Watsonia Station/Greensborough Hwy,Bus,145.08415,-37.7109,209011204,Watsonia
20986,Southland Shopping Centre/Karen St ,Bus,145.05319,-37.9578,208031188,Highett (East) - Cheltenham
21220,Frankston Railway Station/Fletcher Rd,Bus,145.12624,-38.14412,214011371,Frankston
23173,Skybus Coach Terminal/Spencer St,Bus,144.9519,-37.81628,206041118,Docklands
23175,Skybus Coach Terminal/Spencer St,Bus,144.95254,-37.81646,206041118,Docklands
23183,Skybus Coach Terminal/Spencer St,Bus,144.95172,-37.81604,206041118,Docklands
3245,Bay St/New St,Bus,144.99316,-37.90392,208011169,Brighton (Vic.)
3633,North Brighton Station/Bay St,Bus,145.00208,-37.90551,208011169,Brighton (Vic.)
3749,Head St/New St,Bus,144.99547,-37.89173,208011169,Brighton (Vic.)
3752,Elsternwick Station/20 Horne St,Bus,145.0003,-37.88511,208021179,Elsternwick
42273,Chelsea Railway Station/Station St,Bus,145.11621,-38.05194,208031186,Chelsea - Bonbeach
45511,Melbourne Airport T1 Skybus/Arrival Dr,Bus,144.85068,-37.66933,210051248,Melbourne Airport
45513,Melbourne Airport T3 Skybus/Arrival Dr,Bus,144.84874,-37.67094,210051248,Melbourne Airport
48578,Melbourne Airport T4 Skybus/Service Rd,Bus,144.84914,-37.67232,210051248,Melbourne Airport
48784,Quest/435-437 Nepean Hwy,Bus,145.12158,-38.14235,214011371,Frankston
48787,938 Nepean Hwy,Bus,145.03702,-37.93676,208031191,Moorabbin - Heatherton
5184,Werribee RSL/Synnot St,Bus,144.6643,-37.90114,213051368,Werribee - South
7183,Werribee RSL/Synnot St,Bus,144.66452,-37.90135,213051368,Werribee - South
894,Elsternwick Station/Horne St,Bus,145.00029,-37.8849,208021179,Elsternwick
901,Ormond Rd/Glen Huntly Rd,Bus,144.98304,-37.88232,206051129,Elwood
910,Fawkner St/Barkly St,Bus,144.9816,-37.86455,206051514,St Kilda - West
9349,Rogers St/Balcombe Rd,Bus,145.06904,-37.98172,208031190,Mentone
9629,Rogers St/Balcombe Rd,Bus,145.06913,-37.98184,208031190,Mentone
20043,Southern Cross Station,Train,144.95217,-37.81816,206041118,Docklands
vic:rail:SSS,Southern Cross Railway Station,Train,144.95278,-37.81866,206041118,Docklands
13626,Lakeside Bvd/Princes Hwy,Regional,145.45671,-38.06235,212011552,Pakenham - South West
13763,High St/Main Rd,Regional,144.73661,-37.27812,210021235,Romsey
13764,High St/Main Rd,Regional,144.73681,-37.27805,210021235,Romsey
13765,Romsey Community Hub/Main St,Regional,144.74281,-37.35009,210021235,Romsey
13766,Romsey Community Hub/Main St,Regional,144.74304,-37.35012,210021235,Romsey
18335,Michael St/Princes Hwy,Regional,145.45606,-38.06186,212011550,Pakenham - North West
20816,Sunbury Station/Brook St,Regional,144.72855,-37.57912,210041540,Sunbury - South
20830,Gisborne Station/Early St,Regional,144.59895,-37.4592,210021232,Gisborne
20831,Riddells Creek Station/Hamilton St ,Regional,144.67936,-37.46455,210021234,Riddells Creek
20832,Clarkefield Station/Station St ,Regional,144.74576,-37.48342,210021235,Romsey
22989,Monegeetta Milk Bar/Melbourne-Lancefield Rd,Regional,144.74929,-37.41396,210021235,Romsey
28164,Southeast Bvd/Healesville-Koo Wee Rup Rd ,Regional,145.48883,-38.09745,212011552,Pakenham - South West
28730,Dumbarton Way/Mulgutherie Way,Regional,144.57823,-37.4905,210021232,Gisborne
28731,Argyle St/Station Rd ,Regional,144.59714,-37.462,210021232,Gisborne
28732,Argyle St/Station Rd ,Regional,144.59719,-37.46228,210021232,Gisborne
28734,Cherry Lane/Swinburne Ave,Regional,144.5862,-37.4763,210021232,Gisborne
28736,Station Rd/Cherry Lane ,Regional,144.5915,-37.47728,210021232,Gisborne
28738,Hamilton St/Goode St,Regional,144.5865,-37.4877,210021232,Gisborne
28739,Howey St/Penny Green Dr,Regional,144.58483,-37.49207,210021232,Gisborne
28741,Dalton St/Melton Rd ,Regional,144.58545,-37.4957,210021232,Gisborne
28744,Fowler Ct/Willowbank Rd,Regional,144.58785,-37.4997,210021232,Gisborne
28746,Glenton Ct/Mt Gisborne Rd ,Regional,144.58857,-37.5029,210021232,Gisborne
28747,Belcher Way/Willowbank Rd ,Regional,144.59035,-37.49998,210021232,Gisborne
28748,Belcher Way/Willowbank Rd ,Regional,144.59102,-37.49996,210021232,Gisborne
28750,Willowbank Rd/Brady Rd ,Regional,144.5971,-37.50097,210021232,Gisborne
28751,Parkview St/Brady Rd ,Regional,144.59636,-37.50489,210021232,Gisborne
28752,Cherry Ballart Rd/Brady Rd ,Regional,144.59649,-37.50496,210021232,Gisborne
28753,Gordon Bvd/Brooking Rd ,Regional,144.60218,-37.51053,210021232,Gisborne
28754,Gordon Bvd/Brooking Rd ,Regional,144.60197,-37.51041,210021232,Gisborne
28755,Brooking Rd/McGeorge Rd ,Regional,144.60931,-37.51066,210021232,Gisborne
28756,Brooking Rd/McGeorge Rd ,Regional,144.60945,-37.51091,210021232,Gisborne
28757,Rothschild Rd/McGeorge Rd ,Regional,144.60884,-37.50595,210021232,Gisborne
28758,Rothschild Rd/McGeorge Rd ,Regional,144.60903,-37.50593,210021232,Gisborne
28759,Tasman Rd/Rothschild Rd ,Regional,144.60481,-37.50488,210021232,Gisborne
28760,Town Pl/Rothschild Rd ,Regional,144.60495,-37.50479,210021232,Gisborne
28761,Willowbank Rd/Childe Harold Rd ,Regional,144.6046,-37.50214,210021232,Gisborne
28762,Willowbank Rd/Childe Harold Rd ,Regional,144.60473,-37.50218,210021232,Gisborne
28763,Thompson Cl/Fersfield Rd ,Regional,144.60502,-37.49798,210021232,Gisborne
28764,Carnegie Ct/Fersfield Rd ,Regional,144.60123,-37.49754,210021232,Gisborne
28765,Keily Rd/Fersfield Rd,Regional,144.59759,-37.49713,210021232,Gisborne
28766,Howey St/Keily Rd,Regional,144.59832,-37.49337,210021232,Gisborne
28767,Worcester Rd/Howey St ,Regional,144.59464,-37.49261,210021232,Gisborne
28768,Worcester Rd/Howey St ,Regional,144.59491,-37.49251,210021232,Gisborne
28769,Howey St/Aitken St ,Regional,144.59065,-37.49116,210021232,Gisborne
28770,Fisher St/Aitken St ,Regional,144.59051,-37.4911,210021232,Gisborne
28771,Aitken St/Hamilton St,Regional,144.59323,-37.48814,210021232,Gisborne
28772,Jacksons Creek Way/Kilmore Rd ,Regional,144.60054,-37.48419,210021232,Gisborne
28773,Kumbari Ct/Peavey Rd,Regional,144.60788,-37.47922,210021232,Gisborne
28774,Saunders Rd/Monaghan Rd,Regional,144.60546,-37.47309,210021232,Gisborne
28775,Farrell St/Saunders Rd ,Regional,144.5958,-37.46944,210021232,Gisborne
28776,Farrell St/Saunders Rd ,Regional,144.59598,-37.46928,210021232,Gisborne
28777,Station Rd/Chessy Park Dr ,Regional,144.59693,-37.46429,210021232,Gisborne
28778,Lim Ct/Chessy Park Dr ,Regional,144.59714,-37.46423,210021232,Gisborne
28779,Gisborne Station/Early St,Regional,144.59849,-37.45944,210021232,Gisborne
28800,Pakenham Station/Railway Ave ,Regional,145.48563,-38.08005,212011551,Pakenham - South East
3429,Cameron Way/Racecourse Rd,Regional,145.49342,-38.07678,212011551,Pakenham - South East
3430,Simon Dr/Racecourse Rd,Regional,145.49409,-38.0737,212011551,Pakenham - South East
3431,Princes Hwy/Racecourse Rd,Regional,145.49362,-38.07151,212011551,Pakenham - South East
3433,James St/Princes Hwy,Regional,145.4807,-38.07168,212011551,Pakenham - South East
3434,McGregor Rd/Princes Hwy,Regional,145.47738,-38.07143,212011551,Pakenham - South East
3448,Rundell Way/Princes Hwy,Regional,145.46477,-38.06494,212011552,Pakenham - South West
3449,Warwick Bayley Oval/Princes Hwy,Regional,145.46174,-38.06363,212011552,Pakenham - South West
3451,Cardinia Rd/Princes Hwy,Regional,145.43638,-38.06324,212011546,Beaconsfield - Officer
3452,McMullen Rd/Princes Hwy,Regional,145.41891,-38.06264,212011546,Beaconsfield - Officer
3453,Officer Recreation Reserve/Princes Hwy,Regional,145.41434,-38.06118,212011546,Beaconsfield - Officer
3454,Station St/Princes Hwy,Regional,145.40819,-38.05999,212011546,Beaconsfield - Officer
3455,Bayview Rd/Princes Hwy,Regional,145.40567,-38.05954,212011546,Beaconsfield - Officer
3456,Brunt Rd/Princes Hwy,Regional,145.39047,-38.05676,212011546,Beaconsfield - Officer
3689,Lauderdale Rd/Princes Hwy,Regional,145.30986,-38.02663,212021456,Narre Warren - South West
3691,Verdun Dr/Princes Hwy,Regional,145.31519,-38.02729,212021456,Narre Warren - South West
3709,Whiteside Rd/Princes Hwy,Regional,145.38989,-38.05627,212011546,Beaconsfield - Officer
3710,Bayview Rd/Princes Hwy,Regional,145.40567,-38.05921,212011546,Beaconsfield - Officer
3711,Tivendale Rd/Princes Hwy,Regional,145.40921,-38.05988,212011546,Beaconsfield - Officer
3712,Officer Recreation Reserve/Princes Hwy,Regional,145.41564,-38.06112,212011550,Pakenham - North West
3713,McMullen Rd/Princes Hwy,Regional,145.41926,-38.06226,212011550,Pakenham - North West
3716,Purton Rd/Princes Hwy,Regional,145.46332,-38.06382,212011550,Pakenham - North West
3719,Lyle Blue Ct/Princes Hwy,Regional,145.47714,-38.07115,212011549,Pakenham - North East
3720,Deveney St/Princes Hwy,Regional,145.4816,-38.07147,212011549,Pakenham - North East
3722,Racecourse Rd Nth/Racecourse Rd,Regional,145.49372,-38.07136,212011551,Pakenham - South East
3723,Cameron Way/Racecourse Rd,Regional,145.49354,-38.07707,212011551,Pakenham - South East
38022,Koo Wee Rup Bus Interchange/Rossiter Rd,Regional,145.49026,-38.19998,212011548,Koo Wee Rup
38026,Caravan Park/Princes Hwy,Regional,145.49175,-38.07152,212011551,Pakenham - South East
38027,King St/Princes Hwy,Regional,145.48715,-38.07214,212011551,Pakenham - South East
38032,St Patricks PS/Princes Hwy,Regional,145.47377,-38.07055,212011552,Pakenham - South West
38036,Thewlis Rd/Princes Hwy,Regional,145.45045,-38.06088,212011552,Pakenham - South West
38053,Cardinia Rd/Princes Hwy,Regional,145.43821,-38.06229,212011550,Pakenham - North West
38054,Thewlis Rd/Princes Hwy,Regional,145.44778,-38.0602,212011550,Pakenham - North West
38057,Pakenham Rd/Princes Hwy,Regional,145.46816,-38.06672,212011549,Pakenham - North East
38058,Pakenham Secondary College/Princes Hwy,Regional,145.47168,-38.06891,212011549,Pakenham - North East
38061,Atkins Rd/Princes Hwy,Regional,145.48661,-38.07183,212011549,Pakenham - North East
38064,Fountain Gate SC/Overland Dr,Regional,145.30307,-38.01969,212021456,Narre Warren - South West
41708,Gisborne Town Centre/Aitken St,Regional,144.59138,-37.48514,210021232,Gisborne
41729,Cherry Lane/Station Rd,Regional,144.5919,-37.47812,210021232,Gisborne
41980,Dalray Cres/Chessy Park Dr,Regional,144.59964,-37.46459,210021232,Gisborne
41981,Galilee Ct/Chessy Park Dr,Regional,144.60259,-37.46325,210021232,Gisborne
41982,Galilee Ct/Chessy Park Dr,Regional,144.60282,-37.46323,210021232,Gisborne
41983,Dalray Cres/Chessy Park Dr,Regional,144.59964,-37.46478,210021232,Gisborne
4209,Barrington Dr/Racecourse Rd,Regional,145.49421,-38.07392,212011551,Pakenham - South East
4217,Richardson St/Princes Hwy,Regional,145.31618,-38.02775,212021456,Narre Warren - South West
4218,Lloyd Ave/Princes Hwy,Regional,145.31215,-38.02727,212021456,Narre Warren - South West
4219,Stewart Ave/Princes Hwy,Regional,145.30926,-38.02697,212021456,Narre Warren - South West
43872,Bullengarook CFA/Bacchus Marsh Rd,Regional,144.51867,-37.48466,210021232,Gisborne
47025,Hamilton St/Goode St,Regional,144.58658,-37.48772,210021232,Gisborne
47026,Howey St/Penny Green Dr,Regional,144.58496,-37.49202,210021232,Gisborne
47028,Fowler Ct/Willowbank Rd,Regional,144.58785,-37.49959,210021232,Gisborne
47032,Howey St/Keily Rd,Regional,144.59821,-37.49332,210021232,Gisborne
47035,Aitken St/Hamilton St,Regional,144.59168,-37.48804,210021232,Gisborne
47036,Lonhro Ct/Station Rd,Regional,144.59429,-37.46932,210021232,Gisborne
47037,Farrell St/Station Rd,Regional,144.5954,-37.46764,210021232,Gisborne
47038,Brantome St/Robertson St,Regional,144.58958,-37.48572,210021232,Gisborne
47039,Gisborne Sec Col/Gisborne Melton Rd,Regional,144.58558,-37.49578,210021232,Gisborne
47040,Saunders Rd/Monaghan Rd,Regional,144.60539,-37.47293,210021232,Gisborne
47041,Kumbari Ct/Peavey Rd,Regional,144.60781,-37.47929,210021232,Gisborne
47042,Mountain View Way/Kilmore Rd,Regional,144.60046,-37.48394,210021232,Gisborne
47043,Cherry Lane/Swinburne Ave,Regional,144.58606,-37.47618,210021232,Gisborne
47044,Dumbarton Way/Mulgutherie Way,Regional,144.57758,-37.49039,210021232,Gisborne
47045,Thompson Cl/Fersfield Rd ,Regional,144.60473,-37.49808,210021232,Gisborne
47047,Jonathon Rd/Mount Gisborne Rd ,Regional,144.58815,-37.5057,210021232,Gisborne
47127,Frith Rd/Station Rd,Regional,144.59189,-37.48211,210021232,Gisborne
47128,Sankey Reserve/Station Rd,Regional,144.592,-37.48202,210021232,Gisborne
47130,Collis Ct/Wyralla Cres,Regional,144.58173,-37.50543,210021232,Gisborne
49543,Greenhills Rd/Healesville-Koo Wee Rup Rd ,Regional,145.48776,-38.10215,212011552,Pakenham - South West
49544,Greenhills Rd/Healesville-Koo Wee Rup Rd ,Regional,145.4879,-38.10321,212011551,Pakenham - South East
49545,Livestock Way/Healesville-Koo Wee Rup Rd ,Regional,145.4889,-38.09872,212011551,Pakenham - South East
49873,Holy Cross Catholic PS/Barringo Rd ,Regional,144.59939,-37.45587,210021232,Gisborne
51567,Brady Rd/Willowbank Rd,Regional,144.59701,-37.50069,210021232,Gisborne
51569,Lauren Ct/Fersfield Rd,Regional,144.60108,-37.49762,210021232,Gisborne
51579,Keily Rd/Fersfield Rd,Regional,144.59759,-37.49723,210021232,Gisborne
51790,Lancefield Primary School/High St,Regional,144.72736,-37.27553,210021235,Romsey
51791,Raglan St/High St,Regional,144.73243,-37.27639,210021235,Romsey
51792,Palmer St/Main St,Regional,144.7424,-37.34509,210021235,Romsey
51793,Garden Pl/Main St,Regional,144.74382,-37.3568,210021235,Romsey
51794,Richardson St/Main Rd,Regional,144.68376,-37.45731,210021234,Riddells Creek
51795,Richardson St/Main Rd,Regional,144.68381,-37.45703,210021234,Riddells Creek
51796,Gordon Cres/Main St,Regional,144.74378,-37.3578,210021235,Romsey
51797,Palmer St/Main St,Regional,144.74219,-37.34484,210021235,Romsey
51798,Raglan St/High St,Regional,144.73235,-37.27687,210021235,Romsey
51799,Lancefield Primary School/High St,Regional,144.72657,-37.27552,210021235,Romsey
1,Sunshine Station/City Pl ,Regional,144.83197,-37.78774,213011336,Sunshine
10121,Dorset Rd/Maroondah Hwy,Regional,145.29476,-37.77136,211031451,Croydon - West
10187,Exeter Rd/Maroondah Hwy,Regional,145.29546,-37.77045,211031265,Croydon Hills - Warranwood
13763,High St/Main Rd,Regional,144.73661,-37.27812,210021235,Romsey
13764,High St/Main Rd,Regional,144.73681,-37.27805,210021235,Romsey
13765,Romsey Community Hub/Main St,Regional,144.74281,-37.35009,210021235,Romsey
13766,Romsey Community Hub/Main St,Regional,144.74304,-37.35012,210021235,Romsey
16275,North Melbourne Station/Railway Pl ,Regional,144.94151,-37.80631,206041127,West Melbourne - Industrial
16342,Cranbourne Park SC/Lyall St,Regional,145.28416,-38.10964,212031300,Cranbourne
16834,Station St/High St,Regional,145.28271,-38.10164,212031300,Cranbourne
169,RMIT Bundoora Campus West/Plenty Rd,Regional,145.06899,-37.68071,209041216,Bundoora - North
17153,Hadfield Park/High St,Regional,144.97921,-37.41416,209041224,Wallan
17154,Hadfield Park/High St,Regional,144.97947,-37.41435,209041224,Wallan
17265,Station St/High St,Regional,145.2824,-38.10144,212031300,Cranbourne
17326,Cranbourne Park SC/High St,Regional,145.28319,-38.1089,212031300,Cranbourne
17337,Clyde-Five Ways Rd/South Gippsland Hwy,Regional,145.31812,-38.15947,212031303,Cranbourne South
17338,Clyde-Five Ways Rd/South Gippsland Hwy,Regional,145.3184,-38.15898,212031303,Cranbourne South
17339,Lyall St/South Gippsland Hwy,Regional,145.38154,-38.21366,212031308,Pearcedale - Tooradin
17340,Mickle St/South Gippsland Hwy,Regional,145.38105,-38.21375,212031308,Pearcedale - Tooradin
17341,Koo Wee Rup Bus Interchange/Rossiter Rd,Regional,145.49026,-38.19998,212011548,Koo Wee Rup
17342,Lang Lang Bus Interchange/Western Port Rd,Regional,145.56287,-38.26558,212011548,Koo Wee Rup
17584,General Store/Whittlesea-Yea Rd,Regional,145.23679,-37.47563,209031211,Kinglake
18,Melton Station/29 Staughton St ,Regional,144.57195,-37.70338,213041578,Melton South - Weir Views
20018,Dandenong Station/Foster St,Regional,145.20961,-37.98976,212041563,Dandenong - North
20816,Sunbury Station/Brook St,Regional,144.72855,-37.57912,210041540,Sunbury - South
20829,Macedon Station/Victoria St ,Regional,144.56164,-37.42309,210021233,Macedon
20831,Riddells Creek Station/Hamilton St ,Regional,144.67936,-37.46455,210021234,Riddells Creek
20832,Clarkefield Station/Station St ,Regional,144.74576,-37.48342,210021235,Romsey
20836,Southern Cross Coach Terminal/Spencer St,Regional,144.95222,-37.81522,206041118,Docklands
20900,Walker Park/Whitehorse Rd,Regional,145.18504,-37.81733,211041271,Nunawading
20912,Bacchus Marsh Station ,Regional,144.43698,-37.68747,213041353,Bacchus Marsh
21466,Garfield Station/Nar Nar Goon - Longwarry Rd ,Regional,145.67544,-38.09167,212011547,Bunyip - Garfield
22028,Rockbank Station/Leakes Rd ,Regional,144.65053,-37.72925,213041359,Rockbank - Mount Cottrell
22098,Herbert St/Melba Hwy,Regional,145.37444,-37.6576,211051276,Healesville - Yarra Glen
22099,Herbert St/Melba Hwy,Regional,145.3747,-37.6582,211051276,Healesville - Yarra Glen
22364,Nar Nar Goon Station/Carney St ,Regional,145.57065,-38.082,212011547,Bunyip - Garfield
22365,Tynong Station/Nar Nar Goon - Longwarry Rd ,Regional,145.62958,-38.0854,212011547,Bunyip - Garfield
22485,Heathcote Junction Station/Rail St ,Regional,145.02838,-37.37153,209041224,Wallan
2463,Coburg PS/Bell St,Regional,144.96737,-37.74127,206011497,Coburg - East
2690,Bundoora RMIT/Plenty Rd,Regional,145.06922,-37.68299,209041216,Bundoora - North
27537,Deer Park Station/Railway Pde,Regional,144.77109,-37.77731,213011569,Deer Park
27538,Caroline Springs Station/Christies Rd,Regional,144.73691,-37.76623,213041359,Rockbank - Mount Cottrell
28199,Lilydale Station/Main St,Regional,145.3469,-37.75677,211051278,Lilydale - Coldstream
3427,Pakenham Station/Railway Ave ,Regional,145.48598,-38.08021,212011551,Pakenham - South East
37740,Main St/Gisborne Rd ,Regional,144.43537,-37.67501,213041353,Bacchus Marsh
39770,Watts St/Whitehorse Rd,Regional,145.12626,-37.8186,207031163,Box Hill
40537,Gisborne Town Centre/Aitken St,Regional,144.59139,-37.48513,210021232,Gisborne
45071,Bunyip Station/Nar Nar Goon-Longwarry Rd ,Regional,145.72156,-38.09959,212011547,Bunyip - Garfield
46509,General Store/Whittlesea-Yea Rd,Regional,145.2369,-37.47577,209031211,Kinglake
46512,Walker Park/Whitehorse Rd,Regional,145.18506,-37.81731,211041271,Nunawading
48832,Cobblebank Station ,Regional,144.60363,-37.71282,213041572,Cobblebank - Strathtulloh
48838,Wallan Station/Station St ,Regional,145.00542,-37.41635,209041224,Wallan
49347,Wandong Station/Rail St ,Regional,145.02702,-37.3554,209041224,Wallan
50263,Wyndham Vale Station/Armstrong Rd,Regional,144.6086,-37.87413,213051590,Wyndham Vale - South
5102,Watts St/Whitehorse Rd,Regional,145.1257,-37.81808,207031163,Box Hill
52040,Little River Station ,Regional,144.49912,-37.96286,213051468,Werribee - West
52041,Tarneit Station,Regional,144.69518,-37.83245,213051584,Tarneit - North
52172,Melbourne Airport/Grants Rd,Regional,144.84988,-37.67417,210051248,Melbourne Airport
52533,Ardeer Station/Forrest St,Regional,144.80205,-37.78279,213011338,Sunshine West
52535,Broadmeadows Station/Pascoe Vale Rd,Regional,144.9188,-37.68342,210051242,Broadmeadows
52538,Craigieburn Station/Potter St ,Regional,144.94363,-37.60243,210051443,Craigieburn - South
52540,Donnybrook Station/Donnybrook Rd ,Regional,144.96955,-37.54258,209041225,Whittlesea
52545,Footscray Station/Irving St,Regional,144.90119,-37.80139,213031348,Footscray
52563,Watergardens Station/Watergardens Circuit Rd,Regional,144.77372,-37.70021,213011340,Taylors Lakes
52564,Gisborne Station/Early St,Regional,144.59895,-37.4592,210021232,Gisborne
6923,Campbellfield Plaza/Sydney Rd,Regional,144.95947,-37.68699,210051243,Campbellfield - Coolaroo
7694,Church St/Walnut St,Regional,145.11771,-37.512,209041225,Whittlesea
7739,Walnut St/Church St,Regional,145.11808,-37.51246,209041225,Whittlesea
7877,Eastland SC/Warrandyte Rd,Regional,145.23065,-37.81246,211031266,Ringwood
1000,Dole Ave/Cheddar Rd,Bus,145.01895,-37.70077,209021523,Reservoir - North East
10001,Rex St/Taylors Rd,Bus,144.77615,-37.72698,213011333,Kings Park (Vic.)
10002,Yuille St/Centenary Ave,Bus,144.59579,-37.67616,213041577,Melton
10009,Gum Rd/Main Rd West,Bus,144.7759,-37.7415,213011333,Kings Park (Vic.)
1001,Lloyd Ave/Cheddar Rd,Bus,145.01969,-37.69918,209021523,Reservoir - North East
10010,Kings Rd/Main Rd West,Bus,144.78008,-37.74195,213011334,St Albans - North
10011,Moffat St/Main Rd West,Bus,144.78347,-37.74232,213011334,St Albans - North
10012,Washington St/Main Rd West,Bus,144.78791,-37.7428,213011334,St Albans - North
10013,Kate St/Main Rd West,Bus,144.79457,-37.74357,213011334,St Albans - North
10014,Raleighs Rd/Centenary Ave,Bus,144.58878,-37.6753,213041577,Melton
10016,Melton Cemetery/O'Neills Rd,Bus,144.57825,-37.67498,213041577,Melton
10017,Swan St/O'Neills Rd,Bus,144.57751,-37.67876,213041577,Melton
10018,Reservoir SC/Broadway,Bus,145.00978,-37.71712,209021525,Reservoir - South East
10019,Northumberland Rd/Pascoe St,Bus,144.93404,-37.71629,210031538,Pascoe Vale
1002,Liston Ave/Cheddar Rd,Bus,145.021,-37.69745,209021523,Reservoir - North East
10020,Westbreen PS/Pascoe St,Bus,144.93639,-37.71655,210031538,Pascoe Vale
10021,Joffre Rd/Boundary Rd,Bus,144.94008,-37.71691,210031538,Pascoe Vale
10022,Kent Rd/Cumberland Rd,Bus,144.9402,-37.72071,210031538,Pascoe Vale
10023,Warwick Rd/Cumberland Rd,Bus,144.93997,-37.7222,210031538,Pascoe Vale
10025,Daley St/Cumberland Rd,Bus,144.93947,-37.72501,210031538,Pascoe Vale
10026,Pleasant St/Cumberland Rd,Bus,144.93912,-37.72712,210031538,Pascoe Vale
10027,Olive Gr/Cumberland Rd,Bus,144.93877,-37.72923,210031538,Pascoe Vale
10028,Gaffney St/Cumberland Rd,Bus,144.93816,-37.73217,210031538,Pascoe Vale
10029,Pardy St/Cumberland Rd,Bus,144.93798,-37.73393,210031538,Pascoe Vale
1003,Keon Pde/Dalton Rd,Bus,145.02316,-37.69504,209041223,Thomastown
10030,Eastgate St/Cumberland Rd,Bus,144.93767,-37.7355,206011109,Pascoe Vale South
10031,Bell St/Cumberland Rd,Bus,144.9373,-37.73761,206011109,Pascoe Vale South
10032,Balmoral Ave/Bell St,Bus,144.94195,-37.73879,206011109,Pascoe Vale South
10033,Royal Pde/Bell St,Bus,144.94705,-37.7394,206011109,Pascoe Vale South
10034,Davis St/Bell St,Bus,144.95078,-37.73979,206011498,Coburg - West
10035,Linsey St/Bell St,Bus,144.95363,-37.74009,206011498,Coburg - West
10036,Kelson St/Bell St,Bus,144.95602,-37.74033,206011498,Coburg - West
10037,Nelson St/Bell St,Bus,144.95992,-37.74072,206011498,Coburg - West
10038,Coburg Cemetery/Bell St,Bus,144.98237,-37.74311,209021429,Preston - West
10039,Tasman St/Bell St,Bus,144.9856,-37.74355,209021429,Preston - West
1004,Wood St/Dalton Rd,Bus,145.02549,-37.69201,209041223,Thomastown
10040,Gilbert Rd/Bell St,Bus,144.98953,-37.74398,209021429,Preston - West
10041,Erin St/Bell St,Bus,144.99293,-37.74428,209021429,Preston - West
10042,Penola St/Bell St,Bus,144.99594,-37.74455,209021429,Preston - West
10043,High St/Bell St,Bus,145.00204,-37.74516,209021428,Preston - East
10044,Plenty Rd/Bell St,Bus,145.00504,-37.74548,209021428,Preston - East
10045,Panch Health Service/Bell St,Bus,145.00849,-37.74582,209021428,Preston - East
10047,O'Keefe St/Bell St,Bus,145.01459,-37.7465,209021428,Preston - East
10048,Liberty Pde/Bell St,Bus,145.03714,-37.74942,209011199,Heidelberg West
10049,Oriel Rd/Bell St,Bus,145.03953,-37.74973,209011199,Heidelberg West
1005,Settlement Rd/Dalton Rd,Bus,145.02806,-37.68827,209041223,Thomastown
10050,Plunkett St/Bell St,Bus,145.04267,-37.75031,209011199,Heidelberg West
10051,Melbourne Polytechnic/Bell St ,Bus,145.04519,-37.75103,209011199,Heidelberg West
10052,Gotha St/Bell St,Bus,145.0478,-37.75189,209011199,Heidelberg West
10053,Austin Repat MC/Bell St,Bus,145.04982,-37.75268,209011199,Heidelberg West
10054,Myrtle St/Bell St,Bus,145.05268,-37.75384,209011199,Heidelberg West
10055,Warringal SC/Cape St,Bus,145.06733,-37.7556,209011198,Heidelberg - Rosanna
10056,Heidelberg Primary School/Darebin St ,Bus,145.06947,-37.75456,209011198,Heidelberg - Rosanna
10057,Brown St/Rosanna Rd,Bus,145.07036,-37.7521,209011198,Heidelberg - Rosanna
10058,Reid St/Rosanna Rd,Bus,145.07077,-37.75001,209011198,Heidelberg - Rosanna
10059,St James Rd/Rosanna Rd,Bus,145.07104,-37.74857,209011198,Heidelberg - Rosanna
1006,Alison St/Dalton Rd,Bus,145.02913,-37.684,209041223,Thomastown
10060,Station Rd/Rosanna Rd,Bus,145.07151,-37.7457,209011198,Heidelberg - Rosanna
10061,Millicent St/Lower Plenty Rd,Bus,145.06938,-37.74049,209011198,Heidelberg - Rosanna
10062,Arden Cres/Lower Plenty Rd,Bus,145.07077,-37.73967,209011198,Heidelberg - Rosanna
10063,Milford Gr/Lower Plenty Rd,Bus,145.07361,-37.73804,209011198,Heidelberg - Rosanna
10064,Lyons St/Hyde St,Bus,144.89955,-37.8088,213031348,Footscray
10065,Harris St/Hyde St,Bus,144.8984,-37.81115,213031348,Footscray
10066,Yarraville Gardens/Hyde St,Bus,144.89727,-37.81427,213031352,Yarraville
10067,Lennox St/Hyde St,Bus,144.89686,-37.8167,213031352,Yarraville
10068,Earsdon St/Hyde St,Bus,144.89651,-37.81822,213031352,Yarraville
10069,Little Hyde St/Hyde St,Bus,144.89621,-37.81988,213031352,Yarraville
1007,Buckingham Ct/Dalton Rd,Bus,145.02971,-37.68055,209041223,Thomastown
10070,Hyde St/Francis St,Bus,144.89531,-37.82179,213031352,Yarraville
10071,Stephen St/Francis St,Bus,144.89243,-37.82146,213031352,Yarraville
10072,Hughes St/Francis St,Bus,144.89067,-37.82125,213031352,Yarraville
10073,Evans St/Bridge St,Bus,144.94059,-37.83418,206051130,Port Melbourne
10074,Princes St/Bridge St,Bus,144.94242,-37.83588,206051130,Port Melbourne
10075,Bay Street Shops/Bay St,Bus,144.9426,-37.83851,206051130,Port Melbourne
10076,Cruikshank St/Liardet St,Bus,144.94503,-37.84002,206051130,Port Melbourne
10077,Bridport St/Richardson St,Bus,144.94903,-37.84235,206051128,Albert Park
10078,Albert Park Shops/Richardson St,Bus,144.95114,-37.84358,206051128,Albert Park
10079,Kerferd Rd/Richardson St,Bus,144.95451,-37.84558,206051128,Albert Park
1008,Wattle St/Dalton Rd,Bus,145.03003,-37.67856,209041223,Thomastown
10080,Middle Park PS/Richardson St,Bus,144.95749,-37.84719,206051128,Albert Park
10081,Wright St/Richardson St,Bus,144.95905,-37.84801,206051128,Albert Park
10082,Nimmo St/Richardson St,Bus,144.96237,-37.84975,206051128,Albert Park
10084,Armstrong St/Danks St,Bus,144.96285,-37.85308,206051128,Albert Park
10086,Fraser St/Patterson St,Bus,144.96697,-37.85536,206051128,Albert Park
10087,Jacoby Reserve/Park St,Bus,144.97043,-37.8572,206051514,St Kilda - West
10088,Mary St/Park St,Bus,144.97274,-37.85906,206051514,St Kilda - West
1009,Maple St/Dalton Rd,Bus,145.03061,-37.67502,209041529,Lalor - East
10093,Warland Rd/Carrington St,Bus,145.03372,-37.93607,208011172,Hampton
10094,Dane Rd/Spring Rd,Bus,145.03381,-37.93995,208011172,Hampton
10095,Besant St/Spring Rd,Bus,145.03316,-37.94259,208011172,Hampton
10099,Bluff Rd/Wickham Rd,Bus,145.02328,-37.94289,208011171,Highett (West) - Cheltenham
101,Aquarena/Williamsons Rd,Bus,145.12638,-37.77438,207021160,Templestowe Lower
1010,Deakin Ave/Dalton Rd,Bus,145.03116,-37.67174,209041529,Lalor - East
10100,June St/Bluff Rd,Bus,145.02243,-37.9455,208011171,Highett (West) - Cheltenham
10101,Abberfield Nursing Home/Bluff Rd,Bus,145.02194,-37.94806,208011171,Highett (West) - Cheltenham
10102,Sandringham College/Bluff Rd,Bus,145.02138,-37.95078,208011171,Highett (West) - Cheltenham
10103,Bay Rd/Bluff Rd,Bus,145.02065,-37.95432,208011173,Sandringham - Black Rock
10104,Holloway Rd/Bluff Rd,Bus,145.01989,-37.9577,208011173,Sandringham - Black Rock
10105,College Gr/Balcombe Rd,Bus,145.01887,-37.97568,208011173,Sandringham - Black Rock
10106,Cullinane St/Balcombe Rd,Bus,145.0211,-37.97603,208011173,Sandringham - Black Rock
10107,Hunter Ave/Balcombe Rd,Bus,145.02392,-37.97639,208011173,Sandringham - Black Rock
10108,Summerhill Rd/Balcombe Rd,Bus,145.02654,-37.97668,208011168,Beaumaris
10109,Haydens Rd/Balcombe Rd,Bus,145.03003,-37.9771,208011168,Beaumaris
1011,Ruth St/Dalton Rd,Bus,145.03147,-37.66988,209041529,Lalor - East
10110,McNaught St/Balcombe Rd,Bus,145.03528,-37.97805,208011168,Beaumaris
10111,Morey St/Balcombe Rd,Bus,145.03939,-37.97814,208011168,Beaumaris
10112,Thistle St/Mt Alexander Rd,Bus,144.91427,-37.75085,206031502,Essendon - East
10113,Ryland Ave/Maroondah Hwy,Bus,145.26612,-37.79009,211031451,Croydon - West
10114,Stirling Rd/Maroondah Hwy,Bus,145.27064,-37.7885,211031451,Croydon - West
10118,Bonnie View Rd/Maroondah Hwy,Bus,145.28808,-37.78108,211031451,Croydon - West
10119,Golf Links Rd/Maroondah Hwy,Bus,145.29216,-37.77829,211031451,Croydon - West
1012,Queen St/Dalton Rd,Bus,145.03177,-37.66805,209041529,Lalor - East
10120,Primrose Rd/Maroondah Hwy,Bus,145.29293,-37.77464,211031451,Croydon - West
10121,Dorset Rd/Maroondah Hwy,Bus,145.29476,-37.77136,211031451,Croydon - West
10122,Exeter Rd/Maroondah Hwy,Bus,145.29562,-37.77048,211031451,Croydon - West
10123,Maroondah Golf Park/Maroondah Hwy,Bus,145.30119,-37.76702,211051275,Chirnside Park
10124,Old Melbourne Rd/Maroondah Hwy,Bus,145.30349,-37.76597,211051275,Chirnside Park
10125,Chirnside Homemaker Centre/Maroondah Hwy,Bus,145.30678,-37.76421,211051275,Chirnside Park
10126,Fletcher Rd/Maroondah Hwy,Bus,145.3103,-37.76191,211051275,Chirnside Park
1013,Curtin Ave/Dalton Rd,Bus,145.03221,-37.66551,209041529,Lalor - East
10131,Powell St/Spring St,Bus,145.0012,-37.72664,209021526,Reservoir - South West
10132,Frankston St/Spring St,Bus,145.0015,-37.72495,209021526,Reservoir - South West
10133,Broughton Ave/Spring St,Bus,145.00172,-37.7237,209021526,Reservoir - South West
10134,Reservoir St/Spring St,Bus,145.00282,-37.72162,209021526,Reservoir - South West
10135,Croft Cres/Spring St,Bus,145.00419,-37.72032,209021526,Reservoir - South West
10137,Viola St/Spring St,Bus,145.00552,-37.71859,209021526,Reservoir - South West
10138,Compton St/Edwardes St,Bus,145.00207,-37.71587,209021526,Reservoir - South West
10139,Kelsby St/Edwardes St,Bus,144.9979,-37.71541,209021526,Reservoir - South West
1014,Childs Rd/Dalton Rd,Bus,145.03106,-37.66194,209041529,Lalor - East
10140,Gilbert Rd/Edwardes St,Bus,144.99285,-37.71605,209021526,Reservoir - South West
10141,Pitt St/Edwardes St,Bus,144.98782,-37.71433,209021526,Reservoir - South West
10142,Newlands Rd/Edwardes St,Bus,144.98468,-37.71401,209021526,Reservoir - South West
10144,Newlands Rd/Henty St,Bus,144.98269,-37.71752,209021526,Reservoir - South West
10145,Kurnai Ave/Henty St,Bus,144.98451,-37.71771,209021526,Reservoir - South West
10146,Wattlebrae St/Henty St,Bus,144.9897,-37.71792,209021526,Reservoir - South West
10147,Boniview St/Henty St,Bus,144.99151,-37.7182,209021526,Reservoir - South West
10148,Henty St/Gilbert Rd,Bus,144.99332,-37.71861,209021526,Reservoir - South West
10149,Kia Ora Rd/Gilbert Rd,Bus,144.99308,-37.72003,209021526,Reservoir - South West
1015,Holroyd Dr/Dalton Rd,Bus,145.03034,-37.6594,209041432,Epping - South
10150,Dwyer Ave/Gilbert Rd,Bus,144.99245,-37.72378,209021526,Reservoir - South West
10151,Knox St/Gilbert Rd,Bus,144.99216,-37.72542,209021526,Reservoir - South West
10152,Beatty St/Gilbert Rd,Bus,144.99196,-37.72641,209021526,Reservoir - South West
10153,Gilbert Rd/Regent St,Bus,144.99168,-37.72945,209021429,Preston - West
10154,Edwardes St/Kelsby St,Bus,144.99823,-37.71514,209021526,Reservoir - South West
10155,Leamington St/Kelsby St,Bus,144.99868,-37.71251,209021526,Reservoir - South West
10157,Seaver Gr/Leamington St,Bus,144.99087,-37.71128,209021526,Reservoir - South West
10158,Gill St/Banbury Rd,Bus,144.9893,-37.7126,209021526,Reservoir - South West
10159,Edwardes St/Banbury Rd,Bus,144.98905,-37.71405,209021526,Reservoir - South West
1016,Grand Pde/Dalton Rd,Bus,145.03068,-37.65687,209041432,Epping - South
10160,Luther College/Plymouth Rd,Bus,145.27132,-37.78317,211031265,Croydon Hills - Warranwood
10161,Luther College/Plymouth Rd,Bus,145.27339,-37.78345,211031265,Croydon Hills - Warranwood
10162,Plymouth Rd/Yarra Rd,Bus,145.27443,-37.78366,211031265,Croydon Hills - Warranwood
10164,Clement Cres/Croydon Rd,Bus,145.28381,-37.78453,211031451,Croydon - West
10165,Grandview Ave/Croydon Rd,Bus,145.28346,-37.78661,211031451,Croydon - West
10166,Samuel St/Croydon Rd,Bus,145.28259,-37.79,211031451,Croydon - West
10167,Croydon PS/Croydon Rd,Bus,145.28197,-37.79256,211031451,Croydon - West
10168,Larissa Ave/Maroondah Hwy,Bus,145.23575,-37.8121,211031266,Ringwood
10169,Oliver St/Maroondah Hwy,Bus,145.23921,-37.80945,211031266,Ringwood
1017,Melbourne Polytechnic/Dalton Rd,Bus,145.03113,-37.65454,209041432,Epping - South
10170,Rupert St/Maroondah Hwy,Bus,145.24021,-37.8085,211031266,Ringwood
10171,Leonard St/Maroondah Hwy,Bus,145.24214,-37.80707,211031266,Ringwood
10172,Mines Rd/Maroondah Hwy,Bus,145.2448,-37.80505,211031266,Ringwood
10173,Dublin Rd/Maroondah Hwy,Bus,145.24745,-37.80268,211031266,Ringwood
10174,Everard Rd/Maroondah Hwy,Bus,145.24873,-37.80176,211031266,Ringwood
10175,463 Maroondah Hwy,Bus,145.25055,-37.80032,211031266,Ringwood
10176,Oban Rd/Maroondah Hwy,Bus,145.25352,-37.79805,211031266,Ringwood
10177,Maggs St/Maroondah Hwy,Bus,145.25935,-37.79399,211031451,Croydon - West
10178,Hinkley Ave/Maroondah Hwy,Bus,145.26218,-37.79197,211031451,Croydon - West
10179,Cherry Tree Gr/Maroondah Hwy,Bus,145.26707,-37.78961,211031451,Croydon - West
1018,Coulstock St/Davisson St,Bus,145.02978,-37.64972,209041432,Epping - South
10180,Highland Ave/Maroondah Hwy,Bus,145.27088,-37.78825,211031451,Croydon - West
10184,Warrien Rd/Maroondah Hwy,Bus,145.28475,-37.78237,211031265,Croydon Hills - Warranwood
10185,Bonnie View Rd/Maroondah Hwy,Bus,145.28814,-37.78092,211031265,Croydon Hills - Warranwood
10186,Primrose Rd/Maroondah Hwy,Bus,145.29284,-37.77463,211031265,Croydon Hills - Warranwood
10187,Exeter Rd/Maroondah Hwy,Bus,145.29546,-37.77045,211031265,Croydon Hills - Warranwood
10188,Maroondah Golf Park/Maroondah Hwy,Bus,145.30177,-37.76635,211051275,Chirnside Park
10189,Old Melbourne Rd/Maroondah Hwy,Bus,145.30441,-37.76528,211051275,Chirnside Park
1019,Davisson St/Rufus St,Bus,145.03082,-37.64897,209041432,Epping - South
10190,Chirnside Homemaker Centre/Maroondah Hwy,Bus,145.30663,-37.76406,211051275,Chirnside Park
10195,High St/Miller St,Bus,145.00029,-37.75212,209021428,Preston - East
10196,William St/Regent St,Bus,145.00361,-37.7307,209021428,Preston - East
10197,Regent St/Spring St,Bus,145.00057,-37.72972,209021526,Reservoir - South West
10198,Rona St/Spring St,Bus,145.0008,-37.72843,209021526,Reservoir - South West
10199,Powell St/Spring St,Bus,145.00108,-37.72669,209021526,Reservoir - South West
102,Lalor Shopping Centre/David St,Bus,145.01678,-37.67174,209041529,Lalor - East
1020,Keith Ave/Greenbrook Dr,Bus,145.03539,-37.64768,209041432,Epping - South
10200,Frankston St/Spring St,Bus,145.0015,-37.7245,209021526,Reservoir - South West
10201,Taylor Ave/Spring St,Bus,145.00171,-37.72337,209021526,Reservoir - South West
10202,Moore Cres/Spring St,Bus,145.00292,-37.72138,209021526,Reservoir - South West
10203,Cleeland St/Spring St,Bus,145.00573,-37.71796,209021526,Reservoir - South West
10204,Reservoir Station/Edwardes St,Bus,145.00624,-37.71644,209021526,Reservoir - South West
10205,Olive St/Edwardes St,Bus,145.0045,-37.71621,209021526,Reservoir - South West
10206,Kelsby St/Edwardes St,Bus,144.99823,-37.71555,209021526,Reservoir - South West
10207,Willoughby St/Edwardes St,Bus,144.99676,-37.71539,209021526,Reservoir - South West
10208,Gilbert Rd/Edwardes St,Bus,144.9926,-37.71632,209021526,Reservoir - South West
10209,Pitt St/Edwardes St,Bus,144.98799,-37.71445,209021526,Reservoir - South West
1021,McDonalds Rd/Greenbrook Dr,Bus,145.03672,-37.64645,209041432,Epping - South
10210,Newlands Rd/Edwardes St,Bus,144.98447,-37.71408,209021526,Reservoir - South West
10211,Newlands Rd/Henty St,Bus,144.98277,-37.71744,209021526,Reservoir - South West
10212,Meadowbank Dr/Furlong Rd,Bus,144.82225,-37.76142,213011337,Sunshine North
10213,Sunshine Hospital/Furlong Rd,Bus,144.81601,-37.76073,213011335,St Albans - South
10214,Ironbark St/Furlong Rd,Bus,144.81322,-37.76044,213011335,St Albans - South
10215,Ginifer Station/Mulhall Dr,Bus,144.81077,-37.75815,213011335,St Albans - South
1022,Greenbrook SC/McDonalds Rd,Bus,145.0401,-37.64584,209041431,Epping - East
10224,St Albans Sec Col/Main Rd East,Bus,144.80656,-37.74497,213011334,St Albans - North
10225,Lester Ave/Main Rd East,Bus,144.8103,-37.74542,213011334,St Albans - North
10227,Lyons St/Hyde St,Bus,144.89956,-37.80816,213031350,Seddon - Kingsville
10228,Princess St/Hyde St,Bus,144.89808,-37.81125,213031352,Yarraville
10229,Somerville Rd/Hyde St,Bus,144.89708,-37.81468,213031352,Yarraville
1023,Greenview Ct/McDonalds Rd,Bus,145.04349,-37.64622,209041431,Epping - East
10230,Lennox St/Hyde St,Bus,144.89672,-37.81636,213031352,Yarraville
10231,204 Hyde St,Bus,144.89641,-37.81809,213031352,Yarraville
10232,Kent St/Hyde St,Bus,144.8961,-37.82016,213031352,Yarraville
10233,Hyde St/Francis St,Bus,144.89576,-37.82174,213031352,Yarraville
10234,Ballarat St/Francis St,Bus,144.89014,-37.82112,213031352,Yarraville
10235,Bunninyong St/Francis St,Bus,144.88741,-37.82082,213031352,Yarraville
10237,271 Narre Warren North Rd,Bus,145.31202,-37.9994,212021455,Narre Warren - North East
10238,Hansen Reserve/Roberts St,Bus,144.87088,-37.80523,213031351,West Footscray - Tottenham
10239,Indwe St/Roberts St,Bus,144.8713,-37.80319,213031351,West Footscray - Tottenham
1024,Merrill Dr/McDonalds Rd,Bus,145.04607,-37.64649,209041431,Epping - East
10240,Sunshine Rd/Roberts St,Bus,144.87153,-37.80114,213031351,West Footscray - Tottenham
10241,Stradbroke St/Sunshine Rd,Bus,144.87921,-37.80153,213031351,West Footscray - Tottenham
10242,West Footscray Station/Sunshine Rd,Bus,144.88342,-37.80235,213031351,West Footscray - Tottenham
10243,Ross St/Bridge St,Bus,144.94019,-37.83424,206051130,Port Melbourne
10244,Station St/Bridge St,Bus,144.94135,-37.83543,206051130,Port Melbourne
10245,Bay Street Shops/Bridge St,Bus,144.94343,-37.83675,206051130,Port Melbourne
10246,Cruikshank St/Liardet St,Bus,144.94495,-37.84031,206051130,Port Melbourne
10247,Bridport St/Richardson St,Bus,144.9486,-37.84224,206051128,Albert Park
10248,Albert Park Shops/Richardson St,Bus,144.95178,-37.8441,206051128,Albert Park
10249,Kerferd Rd/Richardson St,Bus,144.95535,-37.84628,206051128,Albert Park
1025,Meadow Glen Dr/McDonalds Rd,Bus,145.05175,-37.64712,209041431,Epping - East
10250,Middle Park PS/Richardson St,Bus,144.95782,-37.84754,206051128,Albert Park
10251,Wright St/Richardson St,Bus,144.95901,-37.84814,206051128,Albert Park
10252,Nimmo St/Richardson St,Bus,144.96229,-37.84986,206051128,Albert Park
10253,Armstrong St/Richardson St,Bus,144.96373,-37.85066,206051128,Albert Park
10254,Armstrong St/Danks St,Bus,144.96255,-37.85312,206051128,Albert Park
10255,Langridge St/Patterson St,Bus,144.96568,-37.85483,206051128,Albert Park
10256,Fraser St/Park St,Bus,144.96698,-37.8555,206051128,Albert Park
10257,Jacoby Reserve/Park St,Bus,144.97089,-37.85755,206051514,St Kilda - West
10258,Sarnia Ct/Kurrajong Rd,Bus,145.31286,-38.00223,212021455,Narre Warren - North East
10259,High St/Memorial Ave,Bus,145.02809,-37.64487,209041432,Epping - South
1026,Bridle Ct/Meadow Glen Dr,Bus,145.0512,-37.64604,209041431,Epping - East
10260,Watermoor Ave/Eycot St,Bus,145.30367,-37.83735,211031263,Bayswater North
10261,Watermoor Ave/Rendcomb St,Bus,145.30442,-37.83639,211031263,Bayswater North
10262,Bibury Ct/Rendcomb St,Bus,145.30666,-37.83536,211031263,Bayswater North
10263,Collier Rd/Rendcomb St,Bus,145.30676,-37.83402,211031263,Bayswater North
10264,Watermoor Ave/Collier Rd,Bus,145.30514,-37.83335,211031263,Bayswater North
10265,Colchester Rd/Collier Rd,Bus,145.3027,-37.8328,211031263,Bayswater North
10266,Colchester Rd/Allambanan Dr,Bus,145.3015,-37.83317,211031263,Bayswater North
10267,Toolimerin Ave/Allambanan Dr,Bus,145.29992,-37.83236,211031263,Bayswater North
10268,Bagora Ct/Allambanan Dr,Bus,145.2983,-37.83155,211031263,Bayswater North
10269,Canterbury Gardens/Allambanan Dr,Bus,145.295,-37.83151,211031263,Bayswater North
1027,Derby Dr/Meadow Glen Dr,Bus,145.05161,-37.64383,209041431,Epping - East
10270,Aylesbury Ave/Blandford Cres,Bus,145.2925,-37.83104,211031263,Bayswater North
10271,Sherbourne Ave/Blandford Cres,Bus,145.29281,-37.83016,211031263,Bayswater North
10272,Stuart St/Blandford Cres,Bus,145.29383,-37.82816,211031263,Bayswater North
10273,Bayswater North PS/Stuart St,Bus,145.29487,-37.82753,211031263,Bayswater North
10274,Burdekin Ave/Colbury Rd,Bus,145.29648,-37.82879,211031263,Bayswater North
10275,Grant Dr/Burdekin Ave,Bus,145.29723,-37.82773,211031263,Bayswater North
10276,Leighton Rd/Burdekin Ave,Bus,145.29766,-37.82563,211031263,Bayswater North
10277,Anderson Cl/Burdekin Ave,Bus,145.30059,-37.82467,211031263,Bayswater North
10278,Colchester Rd/Burdekin Ave,Bus,145.303,-37.82631,211031263,Bayswater North
10279,Canterbury Rd/Colchester Rd,Bus,145.30382,-37.82379,211031263,Bayswater North
1028,Glendale Ave/Derby Dr,Bus,145.04831,-37.6431,209041431,Epping - East
10283,Garden St/Liverpool Rd,Bus,145.31667,-37.81697,211051277,Kilsyth
10284,Lade Ave/Liverpool Rd,Bus,145.31652,-37.81579,211051277,Kilsyth
10285,Kilsyth Sports Centre/Liverpool Rd,Bus,145.31609,-37.81243,211051277,Kilsyth
10286,Orchard St/Liverpool Rd,Bus,145.31592,-37.81125,211051277,Kilsyth
10287,Luscombe Ct/Liverpool Rd,Bus,145.31573,-37.80985,211051277,Kilsyth
10288,Pleasant St/Liverpool Rd,Bus,145.31526,-37.8064,211051277,Kilsyth
1029,Winchester Ave/Derby Dr,Bus,145.04421,-37.64265,209041431,Epping - East
10291,Belvedere Dr/Swansea Rd,Bus,145.35096,-37.8065,211051280,Montrose
10292,Greenhills Ave/Cambridge Rd,Bus,145.34657,-37.80355,211051280,Montrose
10293,Emery Lane/Cambridge Rd,Bus,145.34479,-37.80283,211051280,Montrose
10294,Montrose Brickworks Flora Reserve/Cambridge Rd,Bus,145.34052,-37.80155,211051281,Mooroolbark
10295,Acacia Ave/Cambridge Rd,Bus,145.33711,-37.80122,211051277,Kilsyth
10296,Alpine Way/Cambridge Rd,Bus,145.3341,-37.80091,211051277,Kilsyth
10297,Chittenup Bend/Overton Lea Bvd,Bus,144.76569,-37.70612,213011339,Sydenham
10298,Hume Dr/Overton Lea Bvd,Bus,144.76802,-37.7091,213011339,Sydenham
10299,Hume Dr/Copperfield Dr,Bus,144.77086,-37.71039,213011331,Delahey
103,Nicholson St/Johnston St,Bus,144.99807,-37.80026,206071139,Abbotsford
1030,Northumberland Dr/Derby Dr,Bus,145.04208,-37.64261,209041431,Epping - East
10300,Yellow Gum Rd/Copperfield Dr,Bus,144.77186,-37.71387,213011331,Delahey
10301,Copperfield College/Copperfield Dr,Bus,144.77084,-37.7186,213011331,Delahey
10307,Rex St/Taylors Rd,Bus,144.77636,-37.72686,213011331,Delahey
10308,Longfellow Dr/Taylors Rd,Bus,144.77411,-37.72661,213011331,Delahey
1031,Scarborough Rd/McDonalds Rd,Bus,145.03503,-37.64544,209041432,Epping - South
10315,Rialto St/Main Rd West,Bus,144.77614,-37.74165,213011333,Kings Park (Vic.)
10316,Kings Rd/Main Rd West,Bus,144.7803,-37.74212,213011335,St Albans - South
10317,Buchanan St/Main Rd West,Bus,144.78365,-37.74249,213011335,St Albans - South
10318,Cleveland St/Main Rd West,Bus,144.78714,-37.74284,213011335,St Albans - South
1032,Church St/High St,Bus,145.02638,-37.64553,209041432,Epping - South
10320,Carberry Dr/Gisborne-Melton Rd,Bus,144.59811,-37.6732,213041576,Kurunjang - Toolern Vale
10321,Riddle Dr/Centenary Ave,Bus,144.59445,-37.67588,213041577,Melton
10322,Raleighs Rd/Centenary Ave,Bus,144.58902,-37.67523,213041577,Melton
10323,Kurunjang Dr/Centenary Ave,Bus,144.58494,-37.67454,213041576,Kurunjang - Toolern Vale
10324,Melton Cemetery/O'Neills Rd,Bus,144.57811,-37.67487,213041577,Melton
10325,Cassia Rd/O'Neills Rd,Bus,144.57748,-37.67831,213041577,Melton
10326,Church St/O'Neills Rd,Bus,144.57763,-37.6815,213041577,Melton
10327,Alexandra St/Unitt St,Bus,144.58033,-37.68198,213041577,Melton
10328,Joyce St/High St,Bus,144.5726,-37.68392,213041577,Melton
1033,High St/Manningham Rd,Bus,145.11572,-37.77458,207021160,Templestowe Lower
10336,Prior Ct/Black Dog Dr,Bus,144.55828,-37.69296,213041571,Brookfield
10339,Emms St/Settlement Rd,Bus,145.05164,-37.69699,209041217,Bundoora - West
1034,Wedge St/High St,Bus,145.02474,-37.65047,209041432,Epping - South
10340,Green St/Settlement Rd,Bus,145.0381,-37.69427,209041223,Thomastown
10341,Norris Bank Primary School/Settlement Rd ,Bus,145.0425,-37.69481,209041217,Bundoora - West
10343,Brand Dr/Settlement Rd,Bus,145.03473,-37.69392,209041223,Thomastown
10344,Wood St/Settlement Rd,Bus,145.03188,-37.69363,209041223,Thomastown
10345,Finton Gr/Keon Pde,Bus,145.01649,-37.69528,209041223,Thomastown
10346,Keon Park Station/Keon Pde,Bus,145.01304,-37.69489,209041223,Thomastown
10347,High St/Mahoneys Rd,Bus,145.00961,-37.69455,209041223,Thomastown
10348,Edgars Rd/Mahoneys Rd,Bus,145.00252,-37.69384,209041223,Thomastown
10349,Lipton Dr/Mahoneys Rd,Bus,144.99733,-37.69332,209041223,Thomastown
1035,Thompsons Heights Shops/Thompsons Rd,Bus,145.0915,-37.77521,207021156,Bulleen
10350,Callander St/Mahoneys Rd,Bus,144.99562,-37.69313,209041223,Thomastown
10351,Clay Ct/Mahoneys Rd,Bus,144.99207,-37.69279,209041223,Thomastown
10352,Lawson Cres/Mahoneys Rd,Bus,144.98602,-37.69218,209041223,Thomastown
10353,Lockton Ave/Mahoneys Rd,Bus,144.98224,-37.6918,209041223,Thomastown
10354,Industrial Ave/Mahoneys Rd,Bus,144.9797,-37.69155,209041223,Thomastown
10355,Phillip St/Mahoneys Rd,Bus,144.97573,-37.69115,209041223,Thomastown
10356,Sydney Rd/Mahoneys Rd,Bus,144.95894,-37.68952,210051243,Campbellfield - Coolaroo
10357,Cheviot Rd/Mahoneys Rd,Bus,144.96291,-37.68993,210051243,Campbellfield - Coolaroo
10358,Darren Ct/Bernard St,Bus,145.05947,-37.95294,208031188,Highett (East) - Cheltenham
10359,Concord Cct/Oakwood Rd,Bus,144.76856,-37.75089,213011333,Kings Park (Vic.)
1036,High St/Mitchell St,Bus,144.99871,-37.77209,206021499,Northcote - East
10360,Woodland Dr/Oakwood Rd,Bus,144.76992,-37.74604,213011333,Kings Park (Vic.)
10361,Evergreen Ave/Oakwood Rd,Bus,144.77019,-37.74421,213011333,Kings Park (Vic.)
10362,Leckie Dr/Evergreen Ave,Bus,144.76833,-37.74376,213011333,Kings Park (Vic.)
10363,Delamare Dr/Evergreen Ave,Bus,144.76543,-37.74355,213011333,Kings Park (Vic.)
10364,Wintersun Dr/Evergreen Ave,Bus,144.76329,-37.74498,213011333,Kings Park (Vic.)
10365,Stephen Calleja Reserve/Opie Rd,Bus,144.76182,-37.74375,213011333,Kings Park (Vic.)
10366,Main Rd West/Opie Rd,Bus,144.76303,-37.74183,213011333,Kings Park (Vic.)
10367,Opie Rd/Main Rd West,Bus,144.76506,-37.7403,213011333,Kings Park (Vic.)
10368,Balnarring Dr/Main Rd West,Bus,144.76667,-37.74048,213011333,Kings Park (Vic.)
1037,High St/Bastings St,Bus,144.99845,-37.77386,206021499,Northcote - East
10372,Maplewood Rd/Gillespie Rd,Bus,144.77532,-37.73362,213011333,Kings Park (Vic.)
10373,Beverley St/Gillespie Rd,Bus,144.77942,-37.73407,213011333,Kings Park (Vic.)
10374,Kings Rd/Gillespie Rd,Bus,144.78159,-37.73425,213011334,St Albans - North
10375,Glenrosa Ct/Gillespie Rd,Bus,144.78539,-37.73462,213011334,St Albans - North
10376,Atheldene Dr/Gillespie Rd,Bus,144.78892,-37.73493,213011334,St Albans - North
10377,Andrew Rd/Jamieson St,Bus,144.78883,-37.73612,213011334,St Albans - North
10378,John St/Jamieson St,Bus,144.78705,-37.73894,213011334,St Albans - North
1038,Andrew St/Bastings St,Bus,145.00325,-37.77443,206021499,Northcote - East
10381,Parnell St/Bernard St,Bus,145.06285,-37.9534,208031188,Highett (East) - Cheltenham
10385,Regent Pde/Bernard St,Bus,145.06484,-37.95368,208031188,Highett (East) - Cheltenham
10386,Cheltenham Sec Col/Bernard St,Bus,145.06755,-37.95402,208031188,Highett (East) - Cheltenham
10387,Willen St/Bernard St,Bus,145.07159,-37.95454,208031188,Highett (East) - Cheltenham
10388,Kingston Centre/Bernard St,Bus,145.07593,-37.95475,208031188,Highett (East) - Cheltenham
10389,Warrigal Rd/Kingston Rd,Bus,145.07803,-37.9534,208031191,Moorabbin - Heatherton
1039,Sharp St/Bastings St,Bus,145.00645,-37.77483,206021499,Northcote - East
10390,Kingston Centre/Kingston Rd,Bus,145.08047,-37.95367,208031191,Moorabbin - Heatherton
10391,St Andrews Dr/Kingston Rd,Bus,145.08282,-37.95399,208031191,Moorabbin - Heatherton
10392,Kingston Heath Golf Club/Kingston Rd,Bus,145.08634,-37.95434,208031191,Moorabbin - Heatherton
10393,Kingston Rd,Bus,145.0904,-37.95483,208031191,Moorabbin - Heatherton
10394,Pietro Rd/Kingston Rd,Bus,145.09446,-37.95533,208031191,Moorabbin - Heatherton
10395,Old Dandenong Rd/Kingston Rd,Bus,145.09938,-37.95597,208031191,Moorabbin - Heatherton
10397,Peace Rd/Kingston Rd,Bus,145.1074,-37.95691,208031191,Moorabbin - Heatherton
10398,Heatherton Christian College/Kingston Rd,Bus,145.11143,-37.95741,208031191,Moorabbin - Heatherton
104,Eucalypt Ave/Williamsons Rd,Bus,145.12869,-37.77098,207021160,Templestowe Lower
1040,Northcote St/Bastings St,Bus,145.00802,-37.77499,206021499,Northcote - East
10400,Victory Rd/Clayton Rd,Bus,145.11436,-37.95324,212041310,Clayton South
10402,Unitt St/O'Neills Rd,Bus,144.57782,-37.68192,213041577,Melton
10403,Alexandra St/Unitt St,Bus,144.57969,-37.68215,213041577,Melton
10404,Joyce St/High St,Bus,144.57253,-37.68404,213041577,Melton
1041,Johnson Park/Bastings St,Bus,145.01063,-37.77531,206021499,Northcote - East
10414,High St/Trethowan Ave,Bus,144.55448,-37.68484,213041358,Melton West
10415,Helen Ct/Trethowan Ave,Bus,144.55106,-37.68439,213041358,Melton West
10416,Bulmans Rd/Westlake Dr,Bus,144.54925,-37.68296,213041358,Melton West
1042,Russell St/Bastings St,Bus,145.01373,-37.77566,206021499,Northcote - East
10421,Warrigal Rd/Waverley Rd,Bus,145.09222,-37.88051,212051319,Ashwood - Chadstone
10422,Margot St/Waverley Rd,Bus,145.09559,-37.88088,212051319,Ashwood - Chadstone
10423,Amaroo St/Waverley Rd,Bus,145.09843,-37.88126,212051319,Ashwood - Chadstone
10424,Baradine St/Waverley Rd,Bus,145.1014,-37.8816,212051319,Ashwood - Chadstone
10426,Nyrang St/Huntingdale Rd,Bus,145.10918,-37.88133,212051319,Ashwood - Chadstone
10427,Melinga Cres/Huntingdale Rd,Bus,145.10978,-37.87814,212051319,Ashwood - Chadstone
10428,Burton St/Huntingdale Rd,Bus,145.1101,-37.87635,212051319,Ashwood - Chadstone
10429,Jordanville Station/Huntingdale Rd,Bus,145.11076,-37.87246,212051319,Ashwood - Chadstone
1043,Grandview Gr/Bastings St,Bus,145.01495,-37.77579,206021499,Northcote - East
10430,Electra Ave/Huntingdale Rd,Bus,145.11113,-37.8706,212051319,Ashwood - Chadstone
10431,High Street Rd/Huntingdale Rd,Bus,145.11172,-37.86745,212051319,Ashwood - Chadstone
10432,Sylvan Cres/Huntingdale Rd,Bus,145.11196,-37.86623,212051319,Ashwood - Chadstone
10433,Essex Heights Reserve/Huntingdale Rd,Bus,145.11246,-37.86353,212051319,Ashwood - Chadstone
10434,Eildon Rd/Huntingdale Rd,Bus,145.11272,-37.8622,212051319,Ashwood - Chadstone
10435,Arthur St/Huntingdale Rd,Bus,145.1131,-37.85989,212051319,Ashwood - Chadstone
10436,Leyland Rd/Huntingdale Rd,Bus,145.11359,-37.85745,212051319,Ashwood - Chadstone
10437,Peacock St/Highbury Rd,Bus,145.11482,-37.85555,207031165,Burwood (Vic.)
10438,Station St/Highbury Rd,Bus,145.11825,-37.85596,207031165,Burwood (Vic.)
10439,Goold St/Station St,Bus,145.11915,-37.8545,207031165,Burwood (Vic.)
1044,Duncan St/Rathmines St,Bus,145.01632,-37.7764,206021110,Alphington - Fairfield
10440,Talbett St/Station St,Bus,145.11942,-37.85309,207031165,Burwood (Vic.)
10441,Station St/Burwood Hwy,Bus,145.11926,-37.85067,207031165,Burwood (Vic.)
10442,Deakin University/Burwood Hwy,Bus,145.11518,-37.85018,207031165,Burwood (Vic.)
10443,Presbyterian Ladies College/Elgar Rd ,Bus,145.10902,-37.84891,207031165,Burwood (Vic.)
10444,Daniel St/Elgar Rd,Bus,145.10938,-37.84696,207031165,Burwood (Vic.)
10445,Deakin University/Elgar Rd ,Bus,145.10995,-37.84388,207031165,Burwood (Vic.)
10446,Cadorna St/Elgar Rd,Bus,145.11034,-37.84173,207031165,Burwood (Vic.)
10447,Wattle Park/Elgar Rd,Bus,145.11082,-37.83769,207031165,Burwood (Vic.)
1045,Wingrove St/Rathmines St,Bus,145.01612,-37.77764,206021110,Alphington - Fairfield
10451,Corrigan Rd/Henderson Rd,Bus,145.16449,-37.98192,212041565,Keysborough - North
10452,Walnut Cres/Henderson Rd,Bus,145.16299,-37.98176,212041565,Keysborough - North
10453,Alderney Rd/Henderson Rd,Bus,145.16118,-37.98153,212041565,Keysborough - North
10454,Gwent St/Paterson Rd,Bus,145.15553,-37.97963,212041318,Springvale South
10455,Northgate Dr/Paterson Rd,Bus,145.15187,-37.97919,212041318,Springvale South
10456,Springvale Rd/Paterson Rd,Bus,145.14795,-37.9787,212041318,Springvale South
10457,Springvale Rd/Clarke Rd,Bus,145.14606,-37.97738,212041318,Springvale South
10458,Kingston Gardens Aged Care/Clarke Rd,Bus,145.14506,-37.97572,212041318,Springvale South
1046,Fairfield Station/Wingrove St,Bus,145.01789,-37.77886,206021110,Alphington - Fairfield
10460,Spring Rd/Clarke Rd,Bus,145.14038,-37.96781,212041318,Springvale South
10461,Camelot Dr/Clarke Rd,Bus,145.13933,-37.96537,212041318,Springvale South
10462,Spring Parks PS/Clarke Rd,Bus,145.13864,-37.96334,212041318,Springvale South
10463,Heatherton Rd/Westall Rd,Bus,145.13668,-37.95959,212041310,Clayton South
10465,Bellavista Cres/Westall Rd,Bus,145.13743,-37.95518,212041310,Clayton South
10467,Thames Ave/Westall Rd,Bus,145.138,-37.95214,212041310,Clayton South
10468,Spring Valley Dr/Westall Rd,Bus,145.13882,-37.94791,212041310,Clayton South
1047,Fairfield Community Centre/Station St,Bus,145.01841,-37.77667,206021110,Alphington - Fairfield
10470,Westall SC/Rosebank Ave,Bus,145.13975,-37.94077,212041310,Clayton South
10472,Rosebank Ave/Wordsworth Ave,Bus,145.13159,-37.93882,212041310,Clayton South
10473,Oakes Ave/Wordsworth Ave,Bus,145.132,-37.93671,212041310,Clayton South
10474,Milton Ave/Oakes Ave,Bus,145.13052,-37.93545,212041310,Clayton South
10475,Bevan Ave/Oakes Ave,Bus,145.12823,-37.93516,212041310,Clayton South
10476,Mallawa St/Main Rd,Bus,145.12741,-37.9343,212041310,Clayton South
10477,McMillan St/Main Rd,Bus,145.12774,-37.93272,212041310,Clayton South
10478,Centre Rd/Haughton Rd,Bus,145.12681,-37.92986,212041310,Clayton South
10479,Audsley St/Centre Rd,Bus,145.12281,-37.92906,212041310,Clayton South
1048,Mitchell St/Station St,Bus,145.01885,-37.77412,206021110,Alphington - Fairfield
10481,St Bedes College/Naples Rd,Bus,145.06851,-37.99018,208031190,Mentone
10482,Olive St/Clayton Rd,Bus,145.11882,-37.92972,212041310,Clayton South
10483,Kimbarra St/Clayton Rd,Bus,145.11831,-37.93195,212041310,Clayton South
10484,Byron St/Clayton Rd,Bus,145.11783,-37.93497,212041310,Clayton South
10485,Whiteside Rd/Clayton Rd,Bus,145.11724,-37.93835,212041310,Clayton South
10486,Clayton South PS/Clayton Rd,Bus,145.11675,-37.94083,212041310,Clayton South
10488,Murphy St/Bourke Rd,Bus,145.11536,-37.94288,212041309,Clarinda - Oakleigh South
10489,Allwen Ct/Bourke Rd,Bus,145.11236,-37.94252,212041309,Clarinda - Oakleigh South
1049,Separation St/Station St,Bus,145.01939,-37.77114,206021110,Alphington - Fairfield
10490,Glenelg Dr/Bourke Rd,Bus,145.1098,-37.94221,212041309,Clarinda - Oakleigh South
10491,Springs Rd/Bourke Rd,Bus,145.10659,-37.9418,212041309,Clarinda - Oakleigh South
10492,Clarinda SC/Bourke Rd,Bus,145.103,-37.94135,212041309,Clarinda - Oakleigh South
10494,Clarinda Rd/Bourke Rd,Bus,145.09932,-37.94092,212041309,Clarinda - Oakleigh South
10495,Angus Ct/Bourke Rd,Bus,145.09562,-37.94042,212041309,Clarinda - Oakleigh South
10496,Cedar Ct/Bourke Rd,Bus,145.0932,-37.94009,212041309,Clarinda - Oakleigh South
10497,Barkers St/Old Dandenong Rd,Bus,145.08936,-37.93791,212041309,Clarinda - Oakleigh South
10498,Washington Dr/Old Dandenong Rd,Bus,145.08732,-37.93596,212041309,Clarinda - Oakleigh South
10499,Commonwealth Golf Club/Old Dandenong Rd,Bus,145.08447,-37.93397,212041309,Clarinda - Oakleigh South
105,Trenerry Cres/Johnston St,Bus,145.00038,-37.80048,206071139,Abbotsford
1050,Edwin St/Station St,Bus,145.01965,-37.76932,206021110,Alphington - Fairfield
10500,Tecoma Ct/Old Dandenong Rd,Bus,145.08209,-37.93238,212041309,Clarinda - Oakleigh South
10501,Warrigal Rd/South Rd,Bus,145.07841,-37.93864,208031191,Moorabbin - Heatherton
10502,Kingsway/South Rd,Bus,145.07433,-37.93809,208031191,Moorabbin - Heatherton
10503,Alex Ave/South Rd,Bus,145.07102,-37.93769,208031191,Moorabbin - Heatherton
10504,Bignell Rd/South Rd,Bus,145.06813,-37.93749,208031191,Moorabbin - Heatherton
10505,Sullivan St/South Rd,Bus,145.06422,-37.93694,208031191,Moorabbin - Heatherton
10507,Chesterville Rd/South Rd,Bus,145.06059,-37.93644,208031191,Moorabbin - Heatherton
10508,Rowans Rd/South Rd,Bus,145.05665,-37.93608,208031191,Moorabbin - Heatherton
1051,Darebin Rd/Station St,Bus,145.0201,-37.76666,206021110,Alphington - Fairfield
10510,Fletcher St/South Rd,Bus,145.05195,-37.93531,208031191,Moorabbin - Heatherton
10511,Delhi St/Mitcham Rd,Bus,145.19396,-37.81906,211041270,Mitcham (Vic.)
10512,Agra St/Mitcham Rd,Bus,145.19412,-37.82085,211041270,Mitcham (Vic.)
10513,Lucknow St/Mitcham Rd,Bus,145.19437,-37.82437,211041270,Mitcham (Vic.)
10514,Orient Ave/Mitcham Rd,Bus,145.19461,-37.82698,211041270,Mitcham (Vic.)
10515,Vernal Ave/Mitcham Rd,Bus,145.19473,-37.82843,211041270,Mitcham (Vic.)
10516,Picadilly St/Golf Rd,Bus,145.08898,-37.91359,212051326,Oakleigh - Huntingdale
10517,Metropolitan Golf Club/Golf Rd,Bus,145.08946,-37.91114,212051326,Oakleigh - Huntingdale
10518,North Rd/Golf Links Ave,Bus,145.09075,-37.90872,212051326,Oakleigh - Huntingdale
10519,Ryan St/Blyth St,Bus,144.9813,-37.76746,206011106,Brunswick East
1052,John Cain Memorial Park/Station St,Bus,145.02068,-37.76318,206021112,Thornbury
10520,Lee St/Roberts St,Bus,144.98238,-37.76615,206011106,Brunswick East
10521,Stewart St/Nicholson St,Bus,144.98061,-37.76496,206011106,Brunswick East
10522,Glenmorgan St/Nicholson St,Bus,144.97936,-37.76363,206011106,Brunswick East
10523,Lyndhurst Cres/Nicholson St,Bus,144.97755,-37.76249,206011106,Brunswick East
10524,Lygon St/Albion St,Bus,144.97292,-37.76195,206011495,Brunswick - North
10525,Leithead St/Albion St,Bus,144.97004,-37.7616,206011495,Brunswick - North
10526,Austin Tce/Albion St,Bus,144.96842,-37.76142,206011495,Brunswick - North
10527,De Carle St/Albion St,Bus,144.9649,-37.76101,206011495,Brunswick - North
10528,Sydney Rd/Albion St,Bus,144.96294,-37.76079,206011495,Brunswick - North
10529,Anstey Station/217 Albion St,Bus,144.96117,-37.76057,206011495,Brunswick - North
1053,Clarendon St/Station St,Bus,145.02094,-37.76147,206021112,Thornbury
10530,Austral Ave/Albion St,Bus,144.95668,-37.76005,206011495,Brunswick - North
10531,Patterson St/Albion St,Bus,144.9541,-37.75974,206011495,Brunswick - North
10532,Thistle St/Albion St,Bus,144.95145,-37.75942,206011495,Brunswick - North
10534,Cornwall St/Albion St,Bus,144.94946,-37.75916,206011107,Brunswick West
10535,Trenoweth St/Albion St,Bus,144.94672,-37.75883,206011107,Brunswick West
10536,Melville Rd/Albion St,Bus,144.94456,-37.75861,206011107,Brunswick West
10537,Wales St/Albion St,Bus,144.94202,-37.75829,206011107,Brunswick West
10538,Gronn Pl/Albion St,Bus,144.93908,-37.75797,206011107,Brunswick West
10539,Yarrabin St/Albion St,Bus,144.93658,-37.75766,206011107,Brunswick West
1054,Rossmoyne Village/Station St,Bus,145.02129,-37.75954,206021112,Thornbury
10540,Hopetoun St/Albion St,Bus,144.93469,-37.75742,206011107,Brunswick West
10541,Lawson St/Albion St,Bus,144.9321,-37.75668,206031502,Essendon - East
10542,Tennyson St/Albion St,Bus,144.93061,-37.75646,206031502,Essendon - East
10543,McPherson St/Albion St,Bus,144.92858,-37.75629,206031502,Essendon - East
10544,Pascoe Vale Rd/Albion St,Bus,144.9264,-37.75598,206031502,Essendon - East
10546,Pascoe Vale Rd/Brewster St,Bus,144.92504,-37.75138,206031502,Essendon - East
10547,Kalimna St/Brewster St,Bus,144.9232,-37.75119,206031502,Essendon - East
10548,Peterleigh Gr/Brewster St,Bus,144.92131,-37.75097,206031502,Essendon - East
10549,Napier St/Brewster St,Bus,144.91928,-37.75076,206031502,Essendon - East
10554,Station St/Cheltenham Rd,Bus,145.20935,-37.99145,212041564,Dandenong - South
10555,Cheltenham Rd/George St,Bus,145.20498,-37.98934,212041564,Dandenong - South
10556,Langhorne Pl/Langhorne St,Bus,145.2148,-37.98726,212041563,Dandenong - North
10557,Langhorne Pl/Langhorne St,Bus,145.21521,-37.98748,212041563,Dandenong - North
10558,Keneally St/Cheltenham Rd,Bus,145.20555,-37.98999,212041564,Dandenong - South
1056,Dundas St/Albert St,Bus,145.02059,-37.75393,209021428,Preston - East
10566,Progress Rd/Wattletree Rd,Bus,145.15222,-37.70276,209031209,Eltham
10567,Banks Rd/Wattletree Rd,Bus,145.14963,-37.69636,209031209,Eltham
10568,Glen Gully Rd/Wattletree Rd,Bus,145.14743,-37.69427,209031209,Eltham
10569,Casuarina Rdge/Wattletree Rd,Bus,145.14536,-37.69067,209031209,Eltham
1057,Bingo St/Albert St,Bus,145.02116,-37.75042,209021428,Preston - East
10570,Parry Rd/Ryans Rd,Bus,145.14256,-37.68893,209011197,Greensborough
10571,Lesay Dr/Ryans Rd,Bus,145.14298,-37.68605,209011197,Greensborough
10574,Happy Valley Rise/Main St,Bus,145.14813,-37.67386,209031215,Wattle Glen - Diamond Creek
10576,Waigo Way/Brooks Cres,Bus,145.15751,-37.67479,209031215,Wattle Glen - Diamond Creek
10579,Hotham Ct/James Cook Dr,Bus,145.15876,-37.68006,209031215,Wattle Glen - Diamond Creek
1058,Oulton Reserve/Albert St,Bus,145.02153,-37.74833,209021428,Preston - East
10580,Farrer Cl/James Cook Dr,Bus,145.16254,-37.67956,209031215,Wattle Glen - Diamond Creek
10581,Patyah St/Phipps Cres,Bus,145.1647,-37.67877,209031215,Wattle Glen - Diamond Creek
10582,Main Hurstbridge Rd/Phipps Cres,Bus,145.1652,-37.67516,209031215,Wattle Glen - Diamond Creek
10583,Diamond Creek Plaza/Main Hurstbridge Rd,Bus,145.15949,-37.67437,209031215,Wattle Glen - Diamond Creek
10587,Amaroo Ct/Broad Gully Rd,Bus,145.15736,-37.66892,209031215,Wattle Glen - Diamond Creek
10588,Ryan St/Broad Gully Rd,Bus,145.15365,-37.66935,209031215,Wattle Glen - Diamond Creek
10589,Grassy Flat Rd/Broad Gully Rd,Bus,145.1511,-37.66941,209031215,Wattle Glen - Diamond Creek
1059,Ovando St/Albert St,Bus,145.0219,-37.74604,209021428,Preston - East
10590,Clyde St/Collins St,Bus,145.14971,-37.67201,209031215,Wattle Glen - Diamond Creek
10592,Nillumbik Park/Chute St,Bus,145.15397,-37.67333,209031215,Wattle Glen - Diamond Creek
10595,Beech St/Alexander Ave,Bus,145.01729,-37.68059,209041223,Thomastown
10596,Frederick St/Alexander Ave,Bus,145.02051,-37.68095,209041223,Thomastown
10597,Acacia St/Alexander Ave,Bus,145.02325,-37.68125,209041223,Thomastown
10598,Nick Ascenzo Reserve/Alexander Ave,Bus,145.02703,-37.68169,209041223,Thomastown
10599,Smith Ave/Darebin Dr,Bus,145.03132,-37.68181,209041223,Thomastown
106,Clarke St/Johnston St,Bus,145.00182,-37.80063,206071139,Abbotsford
1060,Eton St/Albert St,Bus,145.02229,-37.74388,209021428,Preston - East
10600,Chapman Ave/Darebin Dr,Bus,145.03389,-37.68188,209041223,Thomastown
10601,Bates Ave/Darebin Dr,Bus,145.03544,-37.68017,209041223,Thomastown
10602,Valentine Ave/Darebin Dr,Bus,145.03569,-37.67867,209041223,Thomastown
10603,McKimmies Rd/Darebin Dr,Bus,145.03612,-37.67607,209041223,Thomastown
10604,Lalor Plaza/Darebin Dr,Bus,145.03648,-37.67405,209041529,Lalor - East
10605,Donald St/Darebin Dr,Bus,145.03583,-37.66924,209041529,Lalor - East
10606,Hertford Pl/Darebin Dr,Bus,145.03502,-37.66661,209041529,Lalor - East
10607,Dalton Rd/Burton St,Bus,145.03142,-37.6671,209041529,Lalor - East
10608,49 Burton St,Bus,145.03001,-37.66696,209041529,Lalor - East
10609,Ruthven Cres/Burton St,Bus,145.02717,-37.66664,209041529,Lalor - East
1061,Blake Park/Albert St,Bus,145.02282,-37.74163,209021428,Preston - East
10610,Cherry Ct/Edmondson St,Bus,145.0249,-37.66587,209041529,Lalor - East
10611,Edmondson St/Curtin Ave,Bus,145.02377,-37.66453,209041529,Lalor - East
10612,Newton Cres/Curtin Ave,Bus,145.02121,-37.66515,209041529,Lalor - East
10617,Lalor SC/Station St,Bus,145.01577,-37.67313,209041529,Lalor - East
10618,Heath St/Station St,Bus,145.01519,-37.67654,209041223,Thomastown
10621,Heather Ave/Spring St,Bus,145.00525,-37.68184,209041223,Thomastown
10622,Johnson St/Spring St,Bus,145.00912,-37.68226,209041223,Thomastown
10623,McLeod St/Spring St,Bus,145.01268,-37.68262,209041223,Thomastown
10625,RGC Cook Reserve/Victoria Dr,Bus,144.99131,-37.67355,209041223,Thomastown
10628,Gillwell Rd/Barry Rd,Bus,144.99385,-37.67151,209041223,Thomastown
10631,Franklin Rd/Edgars Rd,Bus,145.00316,-37.67012,209041530,Lalor - West
10632,Robert St/Edgars Rd,Bus,145.00424,-37.66777,209041530,Lalor - West
10633,Dion Cl/Edgars Rd,Bus,145.00514,-37.66539,209041530,Lalor - West
10634,CityLife Church/Kingsway,Bus,145.00752,-37.66461,209041530,Lalor - West
10635,Lyndon St/Kingsway Dr,Bus,145.01115,-37.66501,209041530,Lalor - West
10636,Linoak Ave/Kingsway Dr,Bus,145.0132,-37.66524,209041530,Lalor - West
10638,Mount View Rd/Main St,Bus,145.00977,-37.67979,209041223,Thomastown
10639,Main Street Rec Reserve/Main St,Bus,145.00621,-37.67943,209041223,Thomastown
10640,Simpson St/Main St,Bus,145.00175,-37.67895,209041223,Thomastown
10644,Alexina St/Alfrieda St,Bus,144.80114,-37.74031,213011334,St Albans - North
10645,Westvale Church/Alfrieda St,Bus,144.80162,-37.73775,213011334,St Albans - North
10646,Collins St/Biggs St,Bus,144.8026,-37.73698,213011334,St Albans - North
10647,Walmer Ave/Biggs St,Bus,144.80632,-37.73744,213011334,St Albans - North
10648,Leslie St/Biggs St,Bus,144.80915,-37.73777,213011334,St Albans - North
1065,40 Dorking Rd,Bus,145.13117,-37.81637,207031163,Box Hill
10655,Sunshine Ave/Stenson Rd,Bus,144.82459,-37.73922,213011332,Keilor Downs
10656,Driscolls Rd/Stenson Rd,Bus,144.82802,-37.73827,213011332,Keilor Downs
10657,Harefield Cres/Driscolls Rd,Bus,144.82734,-37.73693,213011332,Keilor Downs
10658,Leavesdon Ave/Driscolls Rd,Bus,144.82559,-37.73488,213011332,Keilor Downs
10659,Valewood Dr/Driscolls Rd,Bus,144.82292,-37.73169,213011332,Keilor Downs
1066,Crevelli St/Tyler St,Bus,145.02907,-37.73268,209021525,Reservoir - South East
10660,Green Gully Rd/Driscolls Rd,Bus,144.82079,-37.72832,213011332,Keilor Downs
10661,Hedgeley Rd/Green Gully Rd,Bus,144.8179,-37.72876,213011332,Keilor Downs
10662,Sunshine Ave/Taylors Rd,Bus,144.81305,-37.7295,213011334,St Albans - North
10663,Oslo Way/Taylors Rd,Bus,144.80947,-37.72912,213011334,St Albans - North
10668,Carbine Way/Taylors Rd,Bus,144.79832,-37.72792,213011332,Keilor Downs
10669,Theodore St/Taylors Rd,Bus,144.80047,-37.72802,213011332,Keilor Downs
1067,Burkitt Ct/Tyler St,Bus,145.03101,-37.73288,209021525,Reservoir - South East
10670,Keilor Central Shopping Centre/Taylors Rd ,Bus,144.80608,-37.72728,213011332,Keilor Downs
10673,Carbine Way/Goodwood Dr,Bus,144.79549,-37.72579,213011332,Keilor Downs
10674,Goodwood Dr/Belmont Ave,Bus,144.7963,-37.72424,213011332,Keilor Downs
10675,Thornhill Dr/Belmont Ave,Bus,144.7996,-37.72362,213011332,Keilor Downs
10676,Belmont Ave/Copernicus Way,Bus,144.80074,-37.72116,213011332,Keilor Downs
10677,Lancia Dr/Copernicus Way,Bus,144.79849,-37.71972,213011332,Keilor Downs
10678,Goodwood Dr/Copernicus Way,Bus,144.795,-37.71916,213011332,Keilor Downs
10679,Roseberry Ave/Copernicus Way,Bus,144.79184,-37.7178,213011332,Keilor Downs
1068,Seston St/Tyler St,Bus,145.03333,-37.73313,209021525,Reservoir - South East
10680,Darebin Ave/Copernicus Way,Bus,144.78972,-37.71506,213011332,Keilor Downs
10681,Lady Nelson Way/Copernicus Way,Bus,144.78955,-37.71266,213011332,Keilor Downs
10682,Lady Nelson Way/Chichester Dr,Bus,144.79322,-37.71172,213011340,Taylors Lakes
10683,Cocoparra Cres/Chichester Dr,Bus,144.79403,-37.7096,213011340,Taylors Lakes
10684,Reed Cres/Bond Dr,Bus,144.78486,-37.70373,213011340,Taylors Lakes
10685,Booth Way/Bond Dr,Bus,144.78174,-37.70205,213011340,Taylors Lakes
10687,Ross Smith Ave/Nepean Hwy,Bus,145.12151,-38.14158,214011371,Frankston
10688,O'Grady Ave/Nepean Hwy,Bus,145.12336,-38.13786,214011371,Frankston
10689,Mereweather Ave/Nepean Hwy,Bus,145.12419,-38.13439,214011371,Frankston
1069,Sullivan Memorial Park/Seston St,Bus,145.0338,-37.73187,209021525,Reservoir - South East
10690,Allawah Ave/Nepean Hwy,Bus,145.12439,-38.13302,214011371,Frankston
10691,Nepean Hwy/Overton Rd,Bus,145.12541,-38.12948,214011371,Frankston
10692,Kananook Ave/Boonong Ave,Bus,145.12684,-38.12568,214011375,Seaford (Vic.)
10693,Fortescue Ave/Boonong Ave,Bus,145.12805,-38.12584,214011375,Seaford (Vic.)
10694,Kananook Primary School/Boonong Ave,Bus,145.13076,-38.12615,214011375,Seaford (Vic.)
10696,Kananook Station/Wells Rd,Bus,145.13512,-38.12121,214011375,Seaford (Vic.)
10697,VicRoads Customer Service Center/Hartnett Dr ,Bus,145.1406,-38.11784,214011375,Seaford (Vic.)
10698,Peninsula Bvd/Hartnett Dr,Bus,145.14107,-38.11489,214011375,Seaford (Vic.)
10699,Heversham Dr/Hartnett Dr,Bus,145.14159,-38.11206,214011375,Seaford (Vic.)
107,Roseland Gr/St Elmo Rd,Bus,145.04655,-37.76064,209011200,Ivanhoe
1070,Clingin St/Seston St,Bus,145.03432,-37.72916,209021525,Reservoir - South East
10701,Boonong Ave/Fortescue Ave,Bus,145.12783,-38.12552,214011375,Seaford (Vic.)
10702,Buna Ave/Fortescue Ave,Bus,145.12823,-38.12331,214011375,Seaford (Vic.)
10703,McCulloch Ave/Fortescue Ave,Bus,145.12851,-38.12108,214011375,Seaford (Vic.)
10704,Milne Ave/Fortescue Ave,Bus,145.12911,-38.1183,214011375,Seaford (Vic.)
10705,Moresby Ave/Fortescue Ave,Bus,145.12951,-38.1164,214011375,Seaford (Vic.)
10706,Bardia Ave/Fortescue Ave,Bus,145.13008,-38.11376,214011375,Seaford (Vic.)
10707,Seaford Rd/Fortescue Ave,Bus,145.13019,-38.11099,214011375,Seaford (Vic.)
10708,Johnstone St/Railway Pde,Bus,145.12982,-38.10934,214011375,Seaford (Vic.)
10709,Seaford Station/Railway Pde,Bus,145.1286,-38.10418,214011375,Seaford (Vic.)
1071,Caddy Ct/Clingin St,Bus,145.0325,-37.72875,209021525,Reservoir - South East
10710,Seaford North Reserve/Railway Pde,Bus,145.1285,-38.1003,214011375,Seaford (Vic.)
10711,Selsey St/Railway Pde,Bus,145.12851,-38.09635,214011375,Seaford (Vic.)
10712,Armstrongs Rd/Railway Pde,Bus,145.12847,-38.09294,214011375,Seaford (Vic.)
10713,Arthur St/Railway Pde,Bus,145.12847,-38.0916,214011375,Seaford (Vic.)
10714,Coolibar Ave/Railway Pde,Bus,145.12795,-38.08891,214011375,Seaford (Vic.)
10715,Attunga Cres/Railway Pde,Bus,145.12748,-38.0851,214011375,Seaford (Vic.)
10716,Burrawong Ave/Railway Pde,Bus,145.12775,-38.08301,214011375,Seaford (Vic.)
10717,Kalimna St/Eel Race Rd,Bus,145.12621,-38.08177,208031185,Carrum - Patterson Lakes
1072,Progress Park/Chaleyer St,Bus,145.02959,-37.72849,209021525,Reservoir - South East
10720,Sugar Berry Rise/Scarlet Oak Ave,Bus,144.56671,-37.65912,213041358,Melton West
10721,Stewart St/Nicholson St,Bus,144.98048,-37.76558,206011106,Brunswick East
10722,Glenmorgan St/Nicholson St,Bus,144.97927,-37.76359,206011106,Brunswick East
10723,Lyndhust Cres/Nicholson St,Bus,144.97805,-37.76261,206011106,Brunswick East
10724,Lygon St/Albion St,Bus,144.97323,-37.76206,206011495,Brunswick - North
10725,Barrow St/Albion St,Bus,144.96948,-37.76159,206011495,Brunswick - North
10726,Mountfield St/Albion St,Bus,144.96816,-37.76145,206011495,Brunswick - North
10727,De Carle St/Albion St,Bus,144.96488,-37.76107,206011495,Brunswick - North
10728,Sydney Rd/Albion St,Bus,144.96349,-37.7609,206011495,Brunswick - North
10729,Anstey Station/222 Albion St,Bus,144.96043,-37.76053,206011495,Brunswick - North
1073,Eisenhower St/Chaleyer St,Bus,145.02787,-37.72829,209021525,Reservoir - South East
10730,Austral Ave/Albion St,Bus,144.95667,-37.7601,206011495,Brunswick - North
10731,Westbourne St/Albion St,Bus,144.95163,-37.7595,206011495,Brunswick - North
10733,Hamilton St/Albion St,Bus,144.94911,-37.7592,206011107,Brunswick West
10734,Wallace St/Albion St,Bus,144.94693,-37.75894,206011107,Brunswick West
10735,Melville Rd/Albion St,Bus,144.94547,-37.75875,206011107,Brunswick West
10736,Bent St/Albion St,Bus,144.94232,-37.75838,206011107,Brunswick West
10737,Gronn Pl/Albion St,Bus,144.93909,-37.75799,206011107,Brunswick West
10738,Yarrabin St/Albion St,Bus,144.93639,-37.75769,206011107,Brunswick West
10739,Waxman Pde/Albion St,Bus,144.93471,-37.75748,206011107,Brunswick West
10740,Lawson St/Albion St,Bus,144.93268,-37.75693,206031502,Essendon - East
10741,Tennyson St/Albion St,Bus,144.93112,-37.75666,206031502,Essendon - East
10742,McPherson St/Albion St,Bus,144.92858,-37.75638,206031502,Essendon - East
10743,Pascoe Vale Rd/Albion St,Bus,144.92661,-37.75613,206031502,Essendon - East
10744,Raleigh St/Pascoe Vale Rd,Bus,144.92573,-37.75415,206031502,Essendon - East
10745,Pascoe Vale Rd/Brewster St,Bus,144.92462,-37.75148,206031502,Essendon - East
10746,Shaftesbury St/Brewster St,Bus,144.92228,-37.75122,206031502,Essendon - East
10747,Napier St/Brewster St,Bus,144.91875,-37.75088,206031502,Essendon - East
10748,Mashoobra St/Boundary Rd,Bus,144.95693,-37.71866,210031236,Coburg North
10749,Adler Gr/Boundary Rd,Bus,144.95392,-37.71836,210031236,Coburg North
1075,Dorrington Ave/Albert St,Bus,145.02472,-37.72653,209021525,Reservoir - South East
10750,Shorts Rd/Lorensen Ave,Bus,144.96087,-37.72352,210031236,Coburg North
10751,Athol Ave/Shorts Rd,Bus,144.9579,-37.72354,210031236,Coburg North
10752,Guilfoyle Ave/Shorts Rd,Bus,144.95443,-37.72318,210031236,Coburg North
10756,Merbein St/Sussex St,Bus,144.95174,-37.71753,210031538,Pascoe Vale
10757,Kingsley College/South St,Bus,144.94986,-37.71545,210031538,Pascoe Vale
10758,Pascoe Vale Gardens Ret Village/South St,Bus,144.94629,-37.71502,210031538,Pascoe Vale
10759,Princess St/South St,Bus,144.94302,-37.71466,210031538,Pascoe Vale
1076,Fenwick St/Chadstone Rd,Bus,145.07911,-37.88228,208041195,Malvern East
10760,Cumberland Rd/South St,Bus,144.94115,-37.71444,210031538,Pascoe Vale
10761,West St/South St,Bus,144.93766,-37.71402,210031538,Pascoe Vale
10762,Walter St/West St,Bus,144.9374,-37.7117,210031535,Glenroy - East
10763,Ila St/West St,Bus,144.93774,-37.70987,210031535,Glenroy - East
10764,West St/Glenroy Rd,Bus,144.93771,-37.70739,210031535,Glenroy - East
10765,Sewell Reserve/Glenroy Rd,Bus,144.93492,-37.70708,210031535,Glenroy - East
10766,Northern Golf Club/Glenroy Rd,Bus,144.93017,-37.70655,210031535,Glenroy - East
10768,Glenroy College/Cardinal Rd,Bus,144.92885,-37.70469,210031535,Glenroy - East
10769,St Agnes Ct/Melbourne Ave,Bus,144.92616,-37.70354,210031535,Glenroy - East
10772,Jeffrey St/Lauricella Ave,Bus,144.86139,-37.74566,210011534,Keilor East
10773,St Damians Primary School/Settlement Rd ,Bus,145.05647,-37.69764,209041217,Bundoora - West
10774,Arcade Sq/West Gtwy,Bus,144.85534,-37.74538,210011534,Keilor East
10775,Sterling Dr/Norwood Dr,Bus,144.85255,-37.74184,210011534,Keilor East
10776,Bond Ct/Sterling Dr,Bus,144.86078,-37.74175,210011534,Keilor East
10778,Buckley St/Milleara Rd,Bus,144.86144,-37.75214,210011533,Avondale Heights
10779,Chaumont Dr/Milleara Rd,Bus,144.8602,-37.7552,210011533,Avondale Heights
10780,Holden Ave/Military Rd,Bus,144.85987,-37.75703,210011533,Avondale Heights
10781,Ridley Ave/Military Rd,Bus,144.86135,-37.7609,210011533,Avondale Heights
10782,Westminster Dr/Military Rd,Bus,144.86242,-37.76347,210011533,Avondale Heights
10783,Alexander St/Military Rd,Bus,144.86403,-37.76713,210011533,Avondale Heights
10784,Riverside Ave/Military Rd,Bus,144.86507,-37.76962,210011533,Avondale Heights
10785,Glenside St/Canning St,Bus,144.86865,-37.77076,210011533,Avondale Heights
10786,Rosamond Rd/Mitchell St,Bus,144.88478,-37.78324,213031349,Maribyrnong
10787,Prince St/Mitchell St,Bus,144.88742,-37.78351,213031349,Maribyrnong
10788,Birdwood St/Gordon St,Bus,144.89057,-37.78522,213031349,Maribyrnong
10789,Owen St/Gordon St,Bus,144.89016,-37.78747,213031348,Footscray
1079,Preston Primary School/Tyler St,Bus,145.01143,-37.73086,209021428,Preston - East
10790,Ballarat Rd/Gordon St,Bus,144.8895,-37.79079,213031348,Footscray
10791,Commercial Rd/Ballarat Rd,Bus,144.89231,-37.79211,213031348,Footscray
10792,Victoria University/Ballarat Rd,Bus,144.89534,-37.79301,213031348,Footscray
10793,Wentworth Dr/McCubbin Dr,Bus,144.77467,-37.6937,213011340,Taylors Lakes
10794,Overnewton College/Robertsons Rd,Bus,144.77364,-37.69126,213011340,Taylors Lakes
10795,64 Robertsons Rd,Bus,144.77765,-37.68716,213011340,Taylors Lakes
10796,Carnarvon Cl/Palmerston Cres,Bus,144.78046,-37.68596,213011340,Taylors Lakes
10797,Warrego Pl/Palmerston Cres,Bus,144.7827,-37.68859,213011340,Taylors Lakes
10798,MacKenzie Cl/Wellesley Dr,Bus,144.78695,-37.69038,213011340,Taylors Lakes
10799,Lawson Ct/Wellesley Dr,Bus,144.79019,-37.69203,213011340,Taylors Lakes
108,Ramu Pde/Waterdale Rd,Bus,145.049,-37.73571,209011199,Heidelberg West
1080,Tennyson Ave/Tyler St,Bus,145.00866,-37.73054,209021428,Preston - East
10800,Nordic Ave/Wellesley Dr,Bus,144.79303,-37.69419,213011340,Taylors Lakes
10801,Penrhyn Ct/Verona Dr,Bus,144.79555,-37.69556,213011340,Taylors Lakes
10802,Truro Cres/Verona Dr,Bus,144.79722,-37.69884,213011340,Taylors Lakes
10803,Taylors Lakes SC/Melton Hwy,Bus,144.80052,-37.70173,213011340,Taylors Lakes
10804,Wyperfeld Ave/Sunshine Ave,Bus,144.80394,-37.71094,213011340,Taylors Lakes
10806,Swindon Cres/Odessa Ave,Bus,144.80557,-37.71558,213011332,Keilor Downs
10807,Snowdon Cl/Odessa Ave,Bus,144.80743,-37.71548,213011332,Keilor Downs
10808,Keilor Downs Sec Col/Odessa Ave,Bus,144.81053,-37.71553,213011332,Keilor Downs
10809,Cromer Pl/Odessa Ave,Bus,144.81213,-37.71834,213011332,Keilor Downs
1081,McLaughlin Cres/Redleap Ave,Bus,145.06633,-37.66178,209041220,Mill Park - North
10810,Tarella Dr/Odessa Ave,Bus,144.81241,-37.72118,213011332,Keilor Downs
10811,Antwerp Dr/Odessa Ave,Bus,144.81199,-37.72397,213011332,Keilor Downs
10812,Dongola Rd/Sunshine Ave,Bus,144.81239,-37.7266,213011332,Keilor Downs
10813,Green Gully Rd/Sunshine Ave,Bus,144.81595,-37.73057,213011334,St Albans - North
10814,Fox St/Sunshine Ave,Bus,144.81808,-37.73331,213011334,St Albans - North
10815,Norman St/Sunshine Ave,Bus,144.81973,-37.73525,213011334,St Albans - North
10816,William St/Sunshine Ave,Bus,144.82233,-37.73834,213011334,St Albans - North
10817,Harcourt Ave/Sunshine Ave,Bus,144.82449,-37.74067,213011334,St Albans - North
10818,Ashton Ave/Sunshine Ave,Bus,144.82656,-37.74311,213011334,St Albans - North
10819,Sage Ave/Sunshine Ave,Bus,144.82828,-37.74517,213011334,St Albans - North
1082,High St/Station St,Bus,145.00511,-37.72971,209021526,Reservoir - South West
10820,Sage Ave/Main Rd East,Bus,144.82825,-37.74759,213011332,Keilor Downs
10821,Wahgunyah Dr/Main Rd East,Bus,144.82617,-37.7473,213011334,St Albans - North
10822,Branston Rd/Main Rd East,Bus,144.82416,-37.7471,213011334,St Albans - North
10823,Cowper Ave/Main Rd East,Bus,144.82109,-37.74669,213011334,St Albans - North
10824,Errington Rd/Main Rd East,Bus,144.81546,-37.74608,213011334,St Albans - North
10825,Leonard Ave/Main Rd East,Bus,144.81189,-37.7456,213011334,St Albans - North
10826,Errington Reserve/Main Rd East,Bus,144.80309,-37.74454,213011334,St Albans - North
10827,Edward St/Settlement Rd,Bus,145.05455,-37.69742,209041217,Bundoora - West
10828,Outlook Rise/Settlement Rd,Bus,145.05117,-37.69705,209041217,Bundoora - West
10829,Latrobe Ave/Settlement Rd,Bus,145.04672,-37.69625,209041217,Bundoora - West
10830,Greenhills Rd/Settlement Rd,Bus,145.04424,-37.69545,209041217,Bundoora - West
10831,Norris Bank Primary School/Settlement Rd ,Bus,145.04119,-37.6947,209041223,Thomastown
10832,Apex Ct/Settlement Rd,Bus,145.03602,-37.6942,209041223,Thomastown
10833,Brand Dr/Settlement Rd,Bus,145.03305,-37.69386,209041223,Thomastown
10834,Hanrahan St/Wood St,Bus,145.02698,-37.69323,209041223,Thomastown
10836,Cheddar Rd/Keon Pde,Bus,145.02165,-37.69614,209021523,Reservoir - North East
10837,Finton Gr/Keon Pde,Bus,145.01647,-37.69558,209021523,Reservoir - North East
10838,Keon Park Station/Keon Pde,Bus,145.01293,-37.69513,209021523,Reservoir - North East
10839,High St/Mahoneys Rd,Bus,145.01016,-37.69488,209021524,Reservoir - North West
1084,Moorhead Dr/Redleap Ave,Bus,145.06492,-37.66356,209041220,Mill Park - North
10840,William Ruthven Secondary College/Mahoneys Rd ,Bus,145.00259,-37.69409,209021524,Reservoir - North West
10841,Long St/Mahoneys Rd,Bus,144.9987,-37.6937,209021524,Reservoir - North West
10842,Callander St/Mahoneys Rd,Bus,144.99495,-37.69331,209021524,Reservoir - North West
10843,Hughes Pde/Mahoneys Rd,Bus,144.99016,-37.69284,209021524,Reservoir - North West
10844,Lawson Cres/Mahoneys Rd,Bus,144.98579,-37.6924,209021524,Reservoir - North West
10845,Lockton Ave/Mahoneys Rd,Bus,144.9827,-37.69209,209021524,Reservoir - North West
10846,Sheargold Ct/Mahoneys Rd,Bus,144.97805,-37.69163,209021524,Reservoir - North West
10847,Phillip St/Mahoneys Rd,Bus,144.97547,-37.69137,209021524,Reservoir - North West
10848,Janice Ct/Mahoneys Rd,Bus,144.96325,-37.69023,210051243,Campbellfield - Coolaroo
10849,Campbellfield Plaza/Mahoneys Rd,Bus,144.95981,-37.68986,210051243,Campbellfield - Coolaroo
1085,Buckmaster Dr/Redleap Ave,Bus,145.06558,-37.66513,209041220,Mill Park - North
10850,Concord Cct/Oakwood Rd,Bus,144.76873,-37.75081,213011333,Kings Park (Vic.)
10851,Woodland Dr/Oakwood Rd,Bus,144.77001,-37.74632,213011333,Kings Park (Vic.)
10852,Kardinia Dr/Oakwood Rd,Bus,144.77033,-37.74451,213011333,Kings Park (Vic.)
10854,Delamare Dr/Evergreen Ave,Bus,144.76522,-37.74339,213011333,Kings Park (Vic.)
10855,Wintersun Dr/Evergreen Ave,Bus,144.76333,-37.74461,213011333,Kings Park (Vic.)
10856,Stephen Calleja Reserve/Opie Rd,Bus,144.76172,-37.74405,213011333,Kings Park (Vic.)
10857,Main Rd West/Opie Rd,Bus,144.76316,-37.74189,213011333,Kings Park (Vic.)
10858,Opie Rd/Main Rd West,Bus,144.76495,-37.74042,213011333,Kings Park (Vic.)
10859,Entally Dr/Main Rd West,Bus,144.76668,-37.74061,213011333,Kings Park (Vic.)
1086,Mill Park Stables Shopping Centre/Redleap Ave ,Bus,145.06309,-37.66766,209041220,Mill Park - North
10861,Copperfield College/Gillespie Rd,Bus,144.77166,-37.73332,213011333,Kings Park (Vic.)
10862,Maplewood Rd/Gillespie Rd,Bus,144.77516,-37.73371,213011333,Kings Park (Vic.)
10863,Beverley St/Gillespie Rd,Bus,144.77938,-37.73417,213011333,Kings Park (Vic.)
10864,Kings Rd/Gillespie Rd,Bus,144.78173,-37.73437,213011334,St Albans - North
10865,Glenrosa Ct/Gillespie Rd,Bus,144.78512,-37.7347,213011334,St Albans - North
10866,Atheldene Dr/Gillespie Rd,Bus,144.78885,-37.73504,213011334,St Albans - North
10867,Andrew Rd/Jamieson St,Bus,144.7886,-37.7361,213011334,St Albans - North
10868,John St/Jamieson St,Bus,144.78694,-37.73895,213011334,St Albans - North
10869,Shirley St/James St,Bus,144.78865,-37.73965,213011334,St Albans - North
10870,James St/Emily St,Bus,144.79236,-37.74039,213011334,St Albans - North
10871,Elizabeth St/Emily St,Bus,144.79186,-37.74274,213011334,St Albans - North
10872,Scott Ave/Main Rd West,Bus,144.79467,-37.74372,213011335,St Albans - South
10873,Tintern Gr/Bernard St,Bus,145.05928,-37.95282,208031188,Highett (East) - Cheltenham
10874,Parnell St/Bernard St,Bus,145.06234,-37.95323,208031188,Highett (East) - Cheltenham
10875,Christensen St/Bernard St,Bus,145.06477,-37.95355,208031188,Highett (East) - Cheltenham
10876,Cheltenham Sec Col/Bernard St,Bus,145.06802,-37.95397,208031188,Highett (East) - Cheltenham
10877,Dissik St/Bernard St,Bus,145.0713,-37.95439,208031188,Highett (East) - Cheltenham
10878,Kingston Centre/Bernard St,Bus,145.07597,-37.9546,208031188,Highett (East) - Cheltenham
10879,Kingston Centre/Kingston Rd,Bus,145.078,-37.95327,208031191,Moorabbin - Heatherton
1088,Childs Rd/Betula Ave,Bus,145.06032,-37.6687,209041221,Mill Park - South
10880,Byng Ave/Kingston Rd,Bus,145.08089,-37.9536,208031191,Moorabbin - Heatherton
10881,Ball Rd/Kingston Rd,Bus,145.0839,-37.95393,208031191,Moorabbin - Heatherton
10882,Kingston Heath Golf Club/Kingston Rd,Bus,145.08702,-37.9543,208031191,Moorabbin - Heatherton
10883,Kingston Rd,Bus,145.09044,-37.95471,208031191,Moorabbin - Heatherton
10884,Pietro Rd/Kingston Rd,Bus,145.09456,-37.95522,208031191,Moorabbin - Heatherton
10885,Old Dandenong Rd/Kingston Rd,Bus,145.09936,-37.95579,208031191,Moorabbin - Heatherton
10887,Peace Rd/Kingston Rd,Bus,145.10746,-37.95681,212041309,Clarinda - Oakleigh South
10888,Heatherton Christian College/Kingston Rd,Bus,145.11206,-37.95739,212041309,Clarinda - Oakleigh South
10889,Kingston Rd/Clayton Rd,Bus,145.11349,-37.95674,212041309,Clarinda - Oakleigh South
10890,Ryans Rd/Clayton Rd,Bus,145.11461,-37.95111,212041309,Clarinda - Oakleigh South
10891,Tully Rd/Clayton Rd,Bus,145.1154,-37.94727,212041309,Clarinda - Oakleigh South
10892,Bodley St/Clayton Rd,Bus,145.11587,-37.94465,212041309,Clarinda - Oakleigh South
10893,Wellington Rd/Blackburn Rd,Bus,145.13998,-37.91783,212051567,Clayton (North) - Notting Hill
10895,Princes Hwy/Blackburn Rd,Bus,145.13947,-37.9206,212051567,Clayton (North) - Notting Hill
109,Yarra Bend Park/Studley Park Rd,Bus,145.00632,-37.80119,207011522,Kew - West
10900,Centre Rd/Springs Rd,Bus,145.10986,-37.92809,212041310,Clayton South
10901,Bond St/Springs Rd,Bus,145.1093,-37.93021,212041309,Clarinda - Oakleigh South
10902,Namatjira Park/Springs Rd,Bus,145.10871,-37.93325,212041309,Clarinda - Oakleigh South
10903,St Andrews PS/Bunney Rd,Bus,145.10821,-37.93461,212041309,Clarinda - Oakleigh South
10906,Wilson St/Argus St,Bus,145.06075,-37.95848,208031188,Highett (East) - Cheltenham
10907,Rosewarne Ave/Argus St,Bus,145.06336,-37.95881,208031188,Highett (East) - Cheltenham
10909,Primrose Ave/Cavanagh St,Bus,145.06658,-37.95678,208031188,Highett (East) - Cheltenham
10914,Bourke Rd/Clarinda Rd,Bus,145.09799,-37.93996,212041309,Clarinda - Oakleigh South
10915,Elliminya Ct/Clarinda Rd,Bus,145.09834,-37.9382,212041309,Clarinda - Oakleigh South
10916,Tatiara Ave/Clarinda Rd,Bus,145.09891,-37.93527,212041309,Clarinda - Oakleigh South
10917,Clarinda Rd/Bunney Rd,Bus,145.09999,-37.93357,212041309,Clarinda - Oakleigh South
10918,Hanover St/Albion St,Bus,144.95445,-37.75991,206011495,Brunswick - North
1092,Alexandra Ave/Punt Rd,Bus,144.98776,-37.83086,206041125,South Yarra - West
10925,Cantala Ave/Lower Plenty Rd,Bus,145.07717,-37.73599,209011198,Heidelberg - Rosanna
10926,Kambea Cres/Lower Plenty Rd,Bus,145.08098,-37.73384,209011203,Viewbank - Yallambie
10927,Graham Rd/Lower Plenty Rd,Bus,145.08269,-37.7329,209011203,Viewbank - Yallambie
10928,Heidelberg Golf Club/Main Rd,Bus,145.11024,-37.72904,209011202,Montmorency - Briar Hill
10929,Old Eltham Rd/Main Rd,Bus,145.11184,-37.72816,209011202,Montmorency - Briar Hill
1093,Acland St/Barkly St,Bus,144.98076,-37.86925,206051514,St Kilda - West
10930,Prosperity Rd/Main Rd ,Bus,145.116,-37.72577,209011202,Montmorency - Briar Hill
10931,Cheverton Rd/Main Rd,Bus,145.11952,-37.72503,209011202,Montmorency - Briar Hill
10932,Beleura Gr/Main Rd,Bus,145.12319,-37.72563,209011202,Montmorency - Briar Hill
10934,Main Rd/Bridge St,Bus,145.1445,-37.71885,209031209,Eltham
10935,Susan St/Bridge St,Bus,145.14031,-37.71835,209031209,Eltham
10937,Adam Cres/Sherbourne Rd,Bus,145.13728,-37.71743,209011202,Montmorency - Briar Hill
10938,Rattray Rd/Sherbourne Rd,Bus,145.13498,-37.71498,209011202,Montmorency - Briar Hill
10939,Karingal Dr/Sherbourne Rd,Bus,145.13205,-37.71275,209011202,Montmorency - Briar Hill
1094,Park Orchards Tennis Club/Park Rd,Bus,145.21447,-37.77779,211021261,Donvale - Park Orchards
10940,Calrossie Ave/Sherbourne Rd,Bus,145.12974,-37.71128,209011202,Montmorency - Briar Hill
10941,Baldwin Ave/Sherbourne Rd,Bus,145.12694,-37.70993,209011202,Montmorency - Briar Hill
10942,Hughes St/Sherbourne Rd,Bus,145.12278,-37.70967,209011202,Montmorency - Briar Hill
10943,Sherbourne Rd/Mountain View Rd,Bus,145.11973,-37.70916,209011202,Montmorency - Briar Hill
10944,Community Hall/Mountain View Rd,Bus,145.11828,-37.70792,209011202,Montmorency - Briar Hill
10945,River St/Mountain View Rd,Bus,145.11655,-37.7062,209011202,Montmorency - Briar Hill
10946,Harold St/Mountain View Rd,Bus,145.11588,-37.70318,209011197,Greensborough
10947,St Helena Rd/Mountain View Rd,Bus,145.11496,-37.70048,209011197,Greensborough
10948,Henry St/Ester St,Bus,145.10006,-37.70553,209011197,Greensborough
10949,Vermont Pde/McDowell St,Bus,145.09656,-37.70653,209011197,Greensborough
1095,Brighton Rd/Glen Huntly Rd,Bus,144.99597,-37.88365,206051129,Elwood
10950,Medbury Ave/Delta Rd,Bus,145.0961,-37.70934,209011197,Greensborough
10951,Sainsbury Ave/Delta Rd,Bus,145.09549,-37.71099,209011197,Greensborough
10952,Nepean St/Delta Rd,Bus,145.09453,-37.71254,209011197,Greensborough
10953,Delta Rd/Elder St,Bus,145.09288,-37.71443,209011204,Watsonia
10954,Elder Street Reserve/63 Elder St,Bus,145.0901,-37.71412,209011204,Watsonia
10955,Yerrawa Dr/Elder St,Bus,145.08779,-37.71306,209011204,Watsonia
10956,Papua St/Elder St,Bus,145.08615,-37.71186,209011204,Watsonia
10959,Watsonia Rd/Greensborough Hwy,Bus,145.08262,-37.715,209011204,Watsonia
1096,Tennyson St/Glen Huntly Rd,Bus,144.99162,-37.88313,206051129,Elwood
10960,Torbay St/Greensborough Hwy,Bus,145.08146,-37.71832,209011203,Viewbank - Yallambie
10961,Yallambie Rd/Greensborough Hwy,Bus,145.08112,-37.72034,209011203,Viewbank - Yallambie
10962,Simpson Army Barracks/Greensborough Hwy,Bus,145.08096,-37.7215,209011203,Viewbank - Yallambie
10963,Strathallan Rd/Greensborough Hwy,Bus,145.08042,-37.72464,209011203,Viewbank - Yallambie
10964,O'Keefe St/Bell St,Bus,145.01455,-37.74625,209021428,Preston - East
10965,Liberty Pde/Bell St,Bus,145.03701,-37.74917,209011199,Heidelberg West
10966,The Mall SC/Bell St,Bus,145.04196,-37.74991,209011199,Heidelberg West
10967,Melbourne Polytechnic/Bell St,Bus,145.04529,-37.75076,209011199,Heidelberg West
10968,Gotha St/Bell St,Bus,145.04796,-37.75178,209011199,Heidelberg West
10969,Edwin St/Bell St,Bus,145.05056,-37.75278,209011199,Heidelberg West
1097,Daley St/Glen Huntly Rd,Bus,144.99035,-37.88299,206051129,Elwood
10970,Myrtle St/Bell St,Bus,145.05344,-37.75386,209011199,Heidelberg West
10971,Upper Heidelberg Rd/Bell St,Bus,145.0559,-37.75476,209011199,Heidelberg West
10972,Warringal SC/Cape St,Bus,145.06717,-37.75579,209011198,Heidelberg - Rosanna
10973,Heidelberg Primary School/Darebin St ,Bus,145.0697,-37.75464,209011198,Heidelberg - Rosanna
10974,Brown St/Rosanna Rd,Bus,145.07049,-37.75212,209011198,Heidelberg - Rosanna
10975,Reid St/Rosanna Rd,Bus,145.07088,-37.75001,209011198,Heidelberg - Rosanna
10976,St James Rd/Rosanna Rd,Bus,145.07117,-37.74858,209011198,Heidelberg - Rosanna
10977,Station Rd/Rosanna Rd,Bus,145.07161,-37.746,209011198,Heidelberg - Rosanna
10978,Millicent St/Lower Plenty Rd,Bus,145.06927,-37.74042,209011198,Heidelberg - Rosanna
10979,Arden Cres/Lower Plenty Rd,Bus,145.0711,-37.73936,209011198,Heidelberg - Rosanna
1098,Elwood Canal/Glen Huntly Rd,Bus,144.98745,-37.88268,206051129,Elwood
10980,Milford Gr/Lower Plenty Rd,Bus,145.07352,-37.73799,209011198,Heidelberg - Rosanna
10981,Cantala Ave/Lower Plenty Rd,Bus,145.0767,-37.73612,209011198,Heidelberg - Rosanna
10982,Kambea Cres/Lower Plenty Rd,Bus,145.08041,-37.734,209011203,Viewbank - Yallambie
10983,Graham Rd/Lower Plenty Rd,Bus,145.08255,-37.73271,209011203,Viewbank - Yallambie
10985,Old Eltham Rd/Main Rd,Bus,145.11117,-37.72821,209011202,Montmorency - Briar Hill
10986,Para Rd/Main Rd,Bus,145.114,-37.72655,209011202,Montmorency - Briar Hill
10987,Kett St/Main Rd,Bus,145.11964,-37.72486,209011202,Montmorency - Briar Hill
10988,Looker Rd/Main Rd,Bus,145.12276,-37.72533,209011202,Montmorency - Briar Hill
10989,Library Pl/Main Rd,Bus,145.14731,-37.71573,209031209,Eltham
1099,Elwood College/Glen Huntly Rd,Bus,144.98442,-37.88232,206051129,Elwood
10990,Alistair Knox Park/Main Rd,Bus,145.14614,-37.71839,209031209,Eltham
10991,Main Rd/Bridge St,Bus,145.14455,-37.71877,209031209,Eltham
10992,Susan St/Bridge St,Bus,145.14109,-37.71835,209031209,Eltham
10994,Adam Cres/Sherbourne Rd,Bus,145.13741,-37.71735,209031209,Eltham
10995,Stephen St/Sherbourne Rd,Bus,145.13509,-37.71488,209031209,Eltham
10996,Karingal Dr/Sherbourne Rd,Bus,145.13278,-37.71291,209011202,Montmorency - Briar Hill
10997,Elmo Rd/Sherbourne Rd,Bus,145.13,-37.7113,209011202,Montmorency - Briar Hill
10998,Hyacinth St/Sherbourne Rd,Bus,145.12692,-37.7098,209011202,Montmorency - Briar Hill
10999,Hughes St/Sherbourne Rd,Bus,145.12193,-37.70958,209011202,Montmorency - Briar Hill
11,Newton Gr/Gallaghers Rd,Bus,145.17856,-37.87744,212051321,Glen Waverley - East
110,Clifton Gr/St Elmo Rd,Bus,145.04602,-37.76384,209011200,Ivanhoe
1100,Broadway/Glen Huntly Rd,Bus,144.98222,-37.88212,206051129,Elwood
11000,Sherbourne Rd/Mountain View Rd,Bus,145.11967,-37.70891,209011202,Montmorency - Briar Hill
11001,Community Hall/Mountain View Rd,Bus,145.11783,-37.70769,209011202,Montmorency - Briar Hill
11002,River St/Mountain View Rd,Bus,145.11674,-37.7065,209011202,Montmorency - Briar Hill
11003,Harold St/Mountain View Rd,Bus,145.116,-37.70302,209011202,Montmorency - Briar Hill
11004,St Helena Rd/Mountain View Rd,Bus,145.11508,-37.70036,209011202,Montmorency - Briar Hill
11005,Henry St/Ester St,Bus,145.10012,-37.70536,209011197,Greensborough
11006,Vermont Pde/McDowell St,Bus,145.0965,-37.70643,209011197,Greensborough
11007,Medbury Ave/Delta Rd,Bus,145.09601,-37.70932,209011204,Watsonia
11008,Sainsbury Ave/Delta Rd,Bus,145.09535,-37.71105,209011204,Watsonia
11009,Nepean St/Delta Rd,Bus,145.09432,-37.71265,209011204,Watsonia
1101,Addison St/Glen Huntly Rd,Bus,144.98021,-37.8819,206051129,Elwood
11010,Delta Rd/Elder St,Bus,145.09273,-37.71431,209011204,Watsonia
11011,Elder Street Reserve/63 Elder St,Bus,145.09011,-37.71404,209011204,Watsonia
11012,Yerrawa Dr/Elder St,Bus,145.08786,-37.71302,209011204,Watsonia
11013,Papua St/Elder St,Bus,145.08624,-37.7118,209011204,Watsonia
11015,Richards Ave/Greensborough Hwy ,Bus,145.08191,-37.71479,209011204,Watsonia
11016,Torbay St/Greensborough Hwy,Bus,145.08135,-37.71803,209011203,Viewbank - Yallambie
11017,Simpson Army Barracks/Greensborough Hwy,Bus,145.08074,-37.72162,209011203,Viewbank - Yallambie
11018,Strathallan Rd/Greensborough Hwy,Bus,145.08042,-37.72376,209011203,Viewbank - Yallambie
11019,Oban Way/Greensborough Hwy,Bus,145.0799,-37.7266,209011203,Viewbank - Yallambie
1102,Glen Huntly Rd/Barkly St,Bus,144.97852,-37.8816,206051129,Elwood
11020,Erskine Rd/Greensborough Hwy,Bus,145.07944,-37.72947,209011203,Viewbank - Yallambie
11026,Crampton Cres/Finlayson St,Bus,145.07119,-37.73463,209011198,Heidelberg - Rosanna
11027,Pyalong Ave/Finlayson St,Bus,145.06937,-37.73726,209011198,Heidelberg - Rosanna
11028,Cremin Ct/Finlayson St,Bus,145.06821,-37.73984,209011198,Heidelberg - Rosanna
1103,Elwood Canal/354 Barkly St,Bus,144.97903,-37.87893,206051129,Elwood
11032,Frankston-Flinders Rd/Golf Links Rd,Bus,145.13763,-38.16443,214011373,Frankston South
11033,Brooklyn Ave/Golf Links Rd,Bus,145.14137,-38.16737,214011373,Frankston South
11034,Mount Erin College/Golf Links Rd,Bus,145.14885,-38.17347,214011371,Frankston
11035,Heatherhill Rd/Robinsons Rd,Bus,145.15405,-38.17584,214011373,Frankston South
11036,Barretts Rd/Robinsons Rd,Bus,145.1787,-38.17922,214011374,Langwarrin
11037,Warrandyte Rd/Robinsons Rd,Bus,145.18641,-38.18014,214011374,Langwarrin
11038,Gardeners Rd/Robinsons Rd,Bus,145.19234,-38.18085,214011374,Langwarrin
11039,Nirvana Cl/Robinsons Rd,Bus,145.19652,-38.18134,214011374,Langwarrin
1104,Meredith St/Barkly St,Bus,144.97943,-37.87685,206051129,Elwood
11040,Donald Rd/Robinsons Rd,Bus,145.20374,-38.1822,214011374,Langwarrin
11041,West Rd/Robinsons Rd,Bus,145.20838,-38.18375,214011374,Langwarrin
11042,Western Port Hwy/Robinsons Rd,Bus,145.2198,-38.18513,212031308,Pearcedale - Tooradin
11043,Middle Rd/Robinsons Rd,Bus,145.22907,-38.18618,212031308,Pearcedale - Tooradin
11044,Hansen Park/Durham Rd,Bus,145.32247,-37.8012,211051277,Kilsyth
11045,North Rd/Durham Rd,Bus,145.31911,-37.80163,211051277,Kilsyth
11046,Beatrice St/Durham Rd,Bus,145.31797,-37.8018,211051277,Kilsyth
11049,Lomond Ave/Hawthory Rd,Bus,145.3131,-37.7986,211051277,Kilsyth
1105,Dickens St/Barkly St,Bus,144.98003,-37.87382,206051513,St Kilda - Central
11050,Kilsyth Centenary Swimming Centre/Hawthory Rd,Bus,145.31363,-37.79556,211051277,Kilsyth
11051,Cambridge Rd/Hawthory Rd,Bus,145.31424,-37.79245,211051277,Kilsyth
11052,Yarra Hills Sec Col/Cambridge Rd,Bus,145.31397,-37.79142,211051281,Mooroolbark
11053,Mooroolbark Bowls Club/Hull Rd,Bus,145.30799,-37.7904,211031450,Croydon - East
11054,Mcilraith Ct/Hull Rd,Bus,145.30631,-37.79118,211031450,Croydon - East
11055,Kurrajong Ave/Hull Rd,Bus,145.30165,-37.79371,211031450,Croydon - East
11056,Kincumber Dr/Hull Rd,Bus,145.29819,-37.7945,211031450,Croydon - East
11058,Glamis Ct/Hull Rd,Bus,145.2938,-37.79587,211031450,Croydon - East
11059,Lacey St/Hewish Rd,Bus,145.28907,-37.79697,211031450,Croydon - East
1106,Blessington St/Barkly St,Bus,144.98058,-37.87099,206051513,St Kilda - Central
11060,Sturt St/Lacey St,Bus,145.28733,-37.79574,211031450,Croydon - East
11061,Main St/Lacey St,Bus,145.28232,-37.79506,211031450,Croydon - East
11062,Karingal Dr/Lucerne Cres,Bus,145.16643,-38.14992,214011372,Frankston North
11063,Yarla Ct/Lucerne Cres,Bus,145.16829,-38.14957,214011372,Frankston North
11064,Oleosa Ct/Lucerne Cres,Bus,145.16983,-38.14824,214011372,Frankston North
11065,Pembroke Ave/Lucerne Cres,Bus,145.16895,-38.14639,214011372,Frankston North
11066,Escabon Gr/Havana Cres,Bus,145.16894,-38.14423,214011372,Frankston North
11067,Havana Cres/Inglenook Cres,Bus,145.16864,-38.14217,214011372,Frankston North
11068,Dalpura Cct/Skye Rd,Bus,145.16875,-38.14026,214011372,Frankston North
11069,Warrawee Cct/Dalpura Cct,Bus,145.16315,-38.13785,214011372,Frankston North
1107,Acland St/Barkly St,Bus,144.9809,-37.86939,206051513,St Kilda - Central
11070,Palkana St/Dalpura Cct,Bus,145.16511,-38.13653,214011372,Frankston North
11071,Illira Ave/Dalpura Cct,Bus,145.16931,-38.13646,214011372,Frankston North
11072,Elenya Ct/Dalpura Cct,Bus,145.1703,-38.13798,214011372,Frankston North
11073,Dalpura Cct/Skye Rd,Bus,145.16881,-38.14017,214011372,Frankston North
11074,Havana Cres/Inglenook Cres,Bus,145.16851,-38.14242,214011372,Frankston North
11075,Escabon Gr/Havana Cres,Bus,145.169,-38.14429,214011372,Frankston North
11076,Pembroke Ave/Lucerne Cres,Bus,145.16859,-38.14621,214011372,Frankston North
11077,Oleosa Ct/Lucerne Cres,Bus,145.16988,-38.1483,214011372,Frankston North
11078,Yarla Ct/Lucerne Cres,Bus,145.16838,-38.14963,214011372,Frankston North
11079,Karingal Dr/Lucerne Cres,Bus,145.16624,-38.14998,214011372,Frankston North
1108,Carlisle St/Barkly St,Bus,144.98135,-37.86695,206051513,St Kilda - Central
11080,Chisholm Institute of TAFE/Beach St,Bus,145.12886,-38.14191,214011371,Frankston
11081,Regina St/Cambridge Rd,Bus,145.32998,-37.80049,211051277,Kilsyth
11082,Balmoral St/Durham Rd,Bus,145.327,-37.80067,211051277,Kilsyth
11083,Elizabeth Bridge Reserve/Durham Rd,Bus,145.32416,-37.80109,211051277,Kilsyth
11084,Hansen Park/Durham Rd,Bus,145.32234,-37.80129,211051277,Kilsyth
11085,Charles St/Durham Rd,Bus,145.31776,-37.80192,211051277,Kilsyth
11086,Liverpool Rd/Mt Dandenong Rd,Bus,145.31391,-37.8027,211051277,Kilsyth
11088,Amelia Ct/Hawthory Rd,Bus,145.31274,-37.79981,211051277,Kilsyth
11089,Lomond Ave/Hawthory Rd,Bus,145.31316,-37.79748,211051277,Kilsyth
1109,Inkerman St/Barkly St,Bus,144.98194,-37.86373,206051513,St Kilda - Central
11090,Kilsyth Centenary Swimming Centre/Hawthory Rd,Bus,145.31355,-37.7953,211051281,Mooroolbark
11091,Cambridge Rd/Hawthory Rd,Bus,145.31411,-37.79259,211051281,Mooroolbark
11093,Mooroolbark Bowls Club/Hull Rd,Bus,145.30823,-37.79031,211051281,Mooroolbark
11094,Nuraylia Ave/Hull Rd,Bus,145.30564,-37.79165,211031450,Croydon - East
11095,Kurrajong Ave/Hull Rd,Bus,145.30119,-37.79416,211031450,Croydon - East
11096,Silverley Rd/Hull Rd,Bus,145.29819,-37.79457,211031450,Croydon - East
11097,Henty Ct/Hull Rd,Bus,145.29386,-37.79592,211031450,Croydon - East
11098,Sturt St/Lacey St,Bus,145.28724,-37.7958,211031450,Croydon - East
11099,Main St/Lacey St,Bus,145.2822,-37.7951,211031450,Croydon - East
